%time,field.role,field.id,field.local_time,field.system_time,field.voltage,field.pos_3d0,field.pos_3d1,field.pos_3d2,field.eop_3d0,field.eop_3d1,field.eop_3d2,field.vel_3d0,field.vel_3d1,field.vel_3d2,field.angle_3d0,field.angle_3d1,field.angle_3d2,field.quaternion0,field.quaternion1,field.quaternion2,field.quaternion3,field.imu_gyro_3d0,field.imu_gyro_3d1,field.imu_gyro_3d2,field.imu_acc_3d0,field.imu_acc_3d1,field.imu_acc_3d2,field.nodes0.role,field.nodes0.id,field.nodes0.dis,field.nodes0.fp_rssi,field.nodes0.rx_rssi
1702623864148844724,0,0,927051,927018,4.927000045776367,1.0,1.0,1.0,0.0,0.0,0.0,-9.999999747378752e-05,0.0,0.0,0.0,0.0,0.0,1.0,0.0,0.0,0.0,0.0,0.0,0.0,0.0,0.0,0.0,0,1,0.08500000089406967,-81.5,-76.5
1702623864168812363,0,0,927071,927038,4.927000045776367,1.0,1.0,1.0,0.0,0.0,0.0,-9.999999747378752e-05,0.0,0.0,0.0,0.0,0.0,1.0,0.0,0.0,0.0,0.0,0.0,0.0,0.0,0.0,0.0,0,1,0.09399999678134918,-80.0,-76.5
1702623864188781250,0,0,927091,927058,4.927000045776367,1.0,1.0,1.0,0.0,0.0,0.0,-9.999999747378752e-05,0.0,0.0,0.0,0.0,0.0,1.0,0.0,0.0,0.0,0.0,0.0,0.0,0.0,0.0,0.0
1702623864208782110,0,0,927111,927078,4.927000045776367,1.0,1.0,1.0,0.0,0.0,0.0,-9.999999747378752e-05,0.0,0.0,0.0,0.0,0.0,1.0,0.0,0.0,0.0,0.0,0.0,0.0,0.0,0.0,0.0,0,1,0.03500000014901161,-81.5,-77.0
1702623864228769277,0,0,927131,927098,4.927000045776367,1.0,1.0,1.0,0.0,0.0,0.0,-9.999999747378752e-05,0.0,0.0,0.0,0.0,0.0,1.0,0.0,0.0,0.0,0.0,0.0,0.0,0.0,0.0,0.0,0,1,0.07500000298023224,-82.5,-77.5
1702623864248760954,0,0,927151,927118,4.927000045776367,1.0,1.0,1.0,0.0,0.0,0.0,-9.999999747378752e-05,0.0,0.0,0.0,0.0,0.0,1.0,0.0,0.0,0.0,0.0,0.0,0.0,0.0,0.0,0.0
1702623864268755575,0,0,927171,927138,4.927000045776367,1.0,1.0,1.0,0.0,0.0,0.0,-9.999999747378752e-05,0.0,0.0,0.0,0.0,0.0,1.0,0.0,0.0,0.0,0.0,0.0,0.0,0.0,0.0,0.0
1702623864288872577,0,0,927191,927158,4.927000045776367,1.0,1.0,1.0,0.0,0.0,0.0,-9.999999747378752e-05,0.0,0.0,0.0,0.0,0.0,1.0,0.0,0.0,0.0,0.0,0.0,0.0,0.0,0.0,0.0
1702623864308776844,0,0,927211,927178,4.927000045776367,1.0,1.0,1.0,0.0,0.0,0.0,-9.999999747378752e-05,0.0,0.0,0.0,0.0,0.0,1.0,0.0,0.0,0.0,0.0,0.0,0.0,0.0,0.0,0.0
1702623864328772140,0,0,927231,927198,4.927000045776367,1.0,1.0,1.0,0.0,0.0,0.0,-9.999999747378752e-05,0.0,0.0,0.0,0.0,0.0,1.0,0.0,0.0,0.0,0.0,0.0,0.0,0.0,0.0,0.0
1702623864348762549,0,0,927251,927218,4.927000045776367,1.0,1.0,1.0,0.0,0.0,0.0,-9.999999747378752e-05,0.0,0.0,0.0,0.0,0.0,1.0,0.0,0.0,0.0,0.0,0.0,0.0,0.0,0.0,0.0
1702623864368796821,0,0,927271,927238,4.927000045776367,1.0,1.0,1.0,0.0,0.0,0.0,-9.999999747378752e-05,0.0,0.0,0.0,0.0,0.0,1.0,0.0,0.0,0.0,0.0,0.0,0.0,0.0,0.0,0.0,0,1,0.07199999690055847,-81.5,-76.5
1702623864388754928,0,0,927291,927258,4.927000045776367,1.0,1.0,1.0,0.0,0.0,0.0,-9.999999747378752e-05,0.0,0.0,0.0,0.0,0.0,1.0,0.0,0.0,0.0,0.0,0.0,0.0,0.0,0.0,0.0,0,1,0.10000000149011612,-80.0,-76.5
1702623864408685950,0,0,927311,927278,4.927000045776367,1.0,1.0,1.0,0.0,0.0,0.0,-9.999999747378752e-05,0.0,0.0,0.0,0.0,0.0,1.0,0.0,0.0,0.0,0.0,0.0,0.0,0.0,0.0,0.0
1702623864428994111,0,0,927331,927298,4.927000045776367,1.0,1.0,1.0,0.0,0.0,0.0,-9.999999747378752e-05,0.0,0.0,0.0,0.0,0.0,1.0,0.0,0.0,0.0,0.0,0.0,0.0,0.0,0.0,0.0,0,1,0.04699999839067459,-81.0,-77.0
1702623864448758858,0,0,927351,927318,4.927000045776367,1.0,1.0,1.0,0.0,0.0,0.0,-9.999999747378752e-05,0.0,0.0,0.0,0.0,0.0,1.0,0.0,0.0,0.0,0.0,0.0,0.0,0.0,0.0,0.0,0,1,0.07699999958276749,-82.0,-77.5
1702623864468851359,0,0,927371,927338,4.927000045776367,1.0,1.0,1.0,0.0,0.0,0.0,-9.999999747378752e-05,0.0,0.0,0.0,0.0,0.0,1.0,0.0,0.0,0.0,0.0,0.0,0.0,0.0,0.0,0.0,0,1,0.07199999690055847,-81.0,-77.5
1702623864488934456,0,0,927391,927358,4.927000045776367,1.0,1.0,1.0,0.0,0.0,0.0,-9.999999747378752e-05,0.0,0.0,0.0,0.0,0.0,1.0,0.0,0.0,0.0,0.0,0.0,0.0,0.0,0.0,0.0,0,1,0.08500000089406967,-81.5,-77.5
1702623864508875475,0,0,927411,927378,4.927000045776367,1.0,1.0,1.0,0.0,0.0,0.0,-9.999999747378752e-05,0.0,0.0,0.0,0.0,0.0,1.0,0.0,0.0,0.0,0.0,0.0,0.0,0.0,0.0,0.0,0,1,0.06400000303983688,-82.0,-76.5
1702623864528795377,0,0,927431,927398,4.927000045776367,1.0,1.0,1.0,0.0,0.0,0.0,-9.999999747378752e-05,0.0,0.0,0.0,0.0,0.0,1.0,0.0,0.0,0.0,0.0,0.0,0.0,0.0,0.0,0.0
1702623864548792667,0,0,927451,927418,4.927000045776367,1.0,1.0,1.0,0.0,0.0,0.0,-9.999999747378752e-05,0.0,0.0,0.0,0.0,0.0,1.0,0.0,0.0,0.0,0.0,0.0,0.0,0.0,0.0,0.0
1702623864568790821,0,0,927471,927438,4.927000045776367,1.0,1.0,1.0,0.0,0.0,0.0,-9.999999747378752e-05,0.0,0.0,0.0,0.0,0.0,1.0,0.0,0.0,0.0,0.0,0.0,0.0,0.0,0.0,0.0,0,1,0.06300000101327896,-80.5,-76.5
1702623864588811810,0,0,927491,927458,4.929999828338623,1.0,1.0,1.0,0.0,0.0,0.0,-9.999999747378752e-05,0.0,0.0,0.0,0.0,0.0,1.0,0.0,0.0,0.0,0.0,0.0,0.0,0.0,0.0,0.0,0,1,0.052000001072883606,-82.0,-77.5
1702623864608762050,0,0,927511,927478,4.929999828338623,1.0,1.0,1.0,0.0,0.0,0.0,-9.999999747378752e-05,0.0,0.0,0.0,0.0,0.0,1.0,0.0,0.0,0.0,0.0,0.0,0.0,0.0,0.0,0.0,0,1,0.07199999690055847,-81.0,-77.5
1702623864628870336,0,0,927531,927498,4.929999828338623,1.0,1.0,1.0,0.0,0.0,0.0,-9.999999747378752e-05,0.0,0.0,0.0,0.0,0.0,1.0,0.0,0.0,0.0,0.0,0.0,0.0,0.0,0.0,0.0,0,1,0.09700000286102295,-81.5,-77.0
1702623864648789043,0,0,927551,927518,4.929999828338623,1.0,1.0,1.0,0.0,0.0,0.0,-9.999999747378752e-05,0.0,0.0,0.0,0.0,0.0,1.0,0.0,0.0,0.0,0.0,0.0,0.0,0.0,0.0,0.0
1702623864668836658,0,0,927571,927538,4.929999828338623,1.0,1.0,1.0,0.0,0.0,0.0,-9.999999747378752e-05,0.0,0.0,0.0,0.0,0.0,1.0,0.0,0.0,0.0,0.0,0.0,0.0,0.0,0.0,0.0
1702623864688795867,0,0,927591,927558,4.929999828338623,1.0,1.0,1.0,0.0,0.0,0.0,-9.999999747378752e-05,0.0,0.0,0.0,0.0,0.0,1.0,0.0,0.0,0.0,0.0,0.0,0.0,0.0,0.0,0.0,0,1,0.09099999815225601,-80.0,-77.0
1702623864708746969,0,0,927611,927578,4.927000045776367,1.0,1.0,1.0,0.0,0.0,0.0,-9.999999747378752e-05,0.0,0.0,0.0,0.0,0.0,1.0,0.0,0.0,0.0,0.0,0.0,0.0,0.0,0.0,0.0,0,1,0.07199999690055847,-81.5,-77.5
1702623864728799578,0,0,927631,927598,4.927000045776367,1.0,1.0,1.0,0.0,0.0,0.0,-9.999999747378752e-05,0.0,0.0,0.0,0.0,0.0,1.0,0.0,0.0,0.0,0.0,0.0,0.0,0.0,0.0,0.0,0,1,0.061000000685453415,-82.0,-77.5
1702623864748797118,0,0,927651,927618,4.927000045776367,1.0,1.0,1.0,0.0,0.0,0.0,-9.999999747378752e-05,0.0,0.0,0.0,0.0,0.0,1.0,0.0,0.0,0.0,0.0,0.0,0.0,0.0,0.0,0.0,0,1,0.09300000220537186,-81.0,-77.5
1702623864768925156,0,0,927671,927638,4.927000045776367,1.0,1.0,1.0,0.0,0.0,0.0,-9.999999747378752e-05,0.0,0.0,0.0,0.0,0.0,1.0,0.0,0.0,0.0,0.0,0.0,0.0,0.0,0.0,0.0,0,1,0.05000000074505806,-81.0,-77.0
1702623864788819478,0,0,927691,927658,4.927000045776367,1.0,1.0,1.0,0.0,0.0,0.0,-9.999999747378752e-05,0.0,0.0,0.0,0.0,0.0,1.0,0.0,0.0,0.0,0.0,0.0,0.0,0.0,0.0,0.0
1702623864808797880,0,0,927711,927678,4.927000045776367,1.0,1.0,1.0,0.0,0.0,0.0,-9.999999747378752e-05,0.0,0.0,0.0,0.0,0.0,1.0,0.0,0.0,0.0,0.0,0.0,0.0,0.0,0.0,0.0,0,1,0.06400000303983688,-80.0,-76.5
1702623864828773557,0,0,927731,927698,4.927999973297119,1.0,1.0,1.0,0.0,0.0,0.0,-9.999999747378752e-05,0.0,0.0,0.0,0.0,0.0,1.0,0.0,0.0,0.0,0.0,0.0,0.0,0.0,0.0,0.0,0,1,0.09300000220537186,-80.5,-77.0
1702623864848850700,0,0,927751,927718,4.927999973297119,1.0,1.0,1.0,0.0,0.0,0.0,-9.999999747378752e-05,0.0,0.0,0.0,0.0,0.0,1.0,0.0,0.0,0.0,0.0,0.0,0.0,0.0,0.0,0.0,0,1,0.08299999684095383,-81.0,-77.5
1702623864868883871,0,0,927771,927738,4.927999973297119,1.0,1.0,1.0,0.0,0.0,0.0,-9.999999747378752e-05,0.0,0.0,0.0,0.0,0.0,1.0,0.0,0.0,0.0,0.0,0.0,0.0,0.0,0.0,0.0,0,1,0.03500000014901161,-81.5,-77.5
1702623864888844777,0,0,927791,927758,4.927999973297119,1.0,1.0,1.0,0.0,0.0,0.0,-9.999999747378752e-05,0.0,0.0,0.0,0.0,0.0,1.0,0.0,0.0,0.0,0.0,0.0,0.0,0.0,0.0,0.0,0,1,0.07900000363588333,-82.5,-77.5
1702623864908996545,0,0,927811,927778,4.927999973297119,1.0,1.0,1.0,0.0,0.0,0.0,-9.999999747378752e-05,0.0,0.0,0.0,0.0,0.0,1.0,0.0,0.0,0.0,0.0,0.0,0.0,0.0,0.0,0.0,0,1,0.09099999815225601,-81.5,-77.5
1702623864928832853,0,0,927831,927798,4.927999973297119,1.0,1.0,1.0,0.0,0.0,0.0,-9.999999747378752e-05,0.0,0.0,0.0,0.0,0.0,1.0,0.0,0.0,0.0,0.0,0.0,0.0,0.0,0.0,0.0,0,1,0.07400000095367432,-81.5,-77.0
1702623864948777206,0,0,927851,927818,4.927999973297119,1.0,1.0,1.0,0.0,0.0,0.0,-9.999999747378752e-05,0.0,0.0,0.0,0.0,0.0,1.0,0.0,0.0,0.0,0.0,0.0,0.0,0.0,0.0,0.0,0,1,0.10499999672174454,-81.5,-77.0
1702623864968855704,0,0,927871,927838,4.927999973297119,1.0,1.0,1.0,0.0,0.0,0.0,-9.999999747378752e-05,0.0,0.0,0.0,0.0,0.0,1.0,0.0,0.0,0.0,0.0,0.0,0.0,0.0,0.0,0.0,0,1,0.11100000143051147,-81.0,-77.0
1702623864988782387,0,0,927891,927858,4.927999973297119,1.0,1.0,1.0,0.0,0.0,0.0,-9.999999747378752e-05,0.0,0.0,0.0,0.0,0.0,1.0,0.0,0.0,0.0,0.0,0.0,0.0,0.0,0.0,0.0,0,1,0.03799999877810478,-81.0,-77.0
1702623865008756873,0,0,927911,927878,4.927999973297119,1.0,1.0,1.0,0.0,0.0,0.0,-9.999999747378752e-05,0.0,0.0,0.0,0.0,0.0,1.0,0.0,0.0,0.0,0.0,0.0,0.0,0.0,0.0,0.0
1702623865028778551,0,0,927931,927898,4.927999973297119,1.0,1.0,1.0,0.0,0.0,0.0,-9.999999747378752e-05,0.0,0.0,0.0,0.0,0.0,1.0,0.0,0.0,0.0,0.0,0.0,0.0,0.0,0.0,0.0,0,1,0.09700000286102295,-80.0,-76.5
1702623865048783030,0,0,927951,927918,4.927999973297119,1.0,1.0,1.0,0.0,0.0,0.0,-9.999999747378752e-05,0.0,0.0,0.0,0.0,0.0,1.0,0.0,0.0,0.0,0.0,0.0,0.0,0.0,0.0,0.0
1702623865068846447,0,0,927971,927938,4.929999828338623,1.0,1.0,1.0,0.0,0.0,0.0,-9.999999747378752e-05,0.0,0.0,0.0,0.0,0.0,1.0,0.0,0.0,0.0,0.0,0.0,0.0,0.0,0.0,0.0,0,1,0.06800000369548798,-80.5,-76.5
1702623865088823257,0,0,927991,927958,4.929999828338623,1.0,1.0,1.0,0.0,0.0,0.0,-9.999999747378752e-05,0.0,0.0,0.0,0.0,0.0,1.0,0.0,0.0,0.0,0.0,0.0,0.0,0.0,0.0,0.0
1702623865108799534,0,0,928011,927978,4.929999828338623,1.0,1.0,1.0,0.0,0.0,0.0,-9.999999747378752e-05,0.0,0.0,0.0,0.0,0.0,1.0,0.0,0.0,0.0,0.0,0.0,0.0,0.0,0.0,0.0,0,1,0.0989999994635582,-80.0,-77.0
1702623865128787480,0,0,928031,927998,4.929999828338623,1.0,1.0,1.0,0.0,0.0,0.0,-9.999999747378752e-05,0.0,0.0,0.0,0.0,0.0,1.0,0.0,0.0,0.0,0.0,0.0,0.0,0.0,0.0,0.0
1702623865148791163,0,0,928051,928018,4.929999828338623,1.0,1.0,1.0,0.0,0.0,0.0,-9.999999747378752e-05,0.0,0.0,0.0,0.0,0.0,1.0,0.0,0.0,0.0,0.0,0.0,0.0,0.0,0.0,0.0,0,1,0.05700000002980232,-80.5,-76.5
1702623865168849002,0,0,928071,928038,4.929999828338623,1.0,1.0,1.0,0.0,0.0,0.0,-9.999999747378752e-05,0.0,0.0,0.0,0.0,0.0,1.0,0.0,0.0,0.0,0.0,0.0,0.0,0.0,0.0,0.0,0,1,0.039000000804662704,-82.0,-77.5
1702623865188797172,0,0,928091,928058,4.927999973297119,1.0,1.0,1.0,0.0,0.0,0.0,-9.999999747378752e-05,0.0,0.0,0.0,0.0,0.0,1.0,0.0,0.0,0.0,0.0,0.0,0.0,0.0,0.0,0.0,0,1,0.09399999678134918,-81.0,-77.5
1702623865208769692,0,0,928111,928078,4.927999973297119,1.0,1.0,1.0,0.0,0.0,0.0,-9.999999747378752e-05,0.0,0.0,0.0,0.0,0.0,1.0,0.0,0.0,0.0,0.0,0.0,0.0,0.0,0.0,0.0,0,1,0.08799999952316284,-81.0,-77.5
1702623865228776025,0,0,928131,928098,4.927999973297119,1.0,1.0,1.0,0.0,0.0,0.0,-9.999999747378752e-05,0.0,0.0,0.0,0.0,0.0,1.0,0.0,0.0,0.0,0.0,0.0,0.0,0.0,0.0,0.0
1702623865248760831,0,0,928151,928118,4.927999973297119,1.0,1.0,1.0,0.0,0.0,0.0,-9.999999747378752e-05,0.0,0.0,0.0,0.0,0.0,1.0,0.0,0.0,0.0,0.0,0.0,0.0,0.0,0.0,0.0,0,1,0.11699999868869781,-82.0,-77.5
1702623865268906909,0,0,928171,928138,4.927999973297119,1.0,1.0,1.0,0.0,0.0,0.0,-9.999999747378752e-05,0.0,0.0,0.0,0.0,0.0,1.0,0.0,0.0,0.0,0.0,0.0,0.0,0.0,0.0,0.0,0,1,0.11100000143051147,-81.0,-77.5
1702623865288890614,0,0,928191,928158,4.927999973297119,1.0,1.0,1.0,0.0,0.0,0.0,-9.999999747378752e-05,0.0,0.0,0.0,0.0,0.0,1.0,0.0,0.0,0.0,0.0,0.0,0.0,0.0,0.0,0.0,0,1,0.07699999958276749,-81.0,-77.5
1702623865308799903,0,0,928211,928178,4.927000045776367,1.0,1.0,1.0,0.0,0.0,0.0,-9.999999747378752e-05,0.0,0.0,0.0,0.0,0.0,1.0,0.0,0.0,0.0,0.0,0.0,0.0,0.0,0.0,0.0,0,1,0.057999998331069946,-81.5,-77.5
1702623865328742050,0,0,928231,928198,4.927000045776367,1.0,1.0,1.0,0.0,0.0,0.0,-9.999999747378752e-05,0.0,0.0,0.0,0.0,0.0,1.0,0.0,0.0,0.0,0.0,0.0,0.0,0.0,0.0,0.0,0,1,0.10000000149011612,-82.0,-77.5
1702623865348741307,0,0,928251,928218,4.927000045776367,1.0,1.0,1.0,0.0,0.0,0.0,-9.999999747378752e-05,0.0,0.0,0.0,0.0,0.0,1.0,0.0,0.0,0.0,0.0,0.0,0.0,0.0,0.0,0.0,0,1,0.08799999952316284,-81.0,-77.5
1702623865368808740,0,0,928271,928238,4.927000045776367,1.0,1.0,1.0,0.0,0.0,0.0,-9.999999747378752e-05,0.0,0.0,0.0,0.0,0.0,1.0,0.0,0.0,0.0,0.0,0.0,0.0,0.0,0.0,0.0,0,1,0.0860000029206276,-81.5,-77.0
1702623865388840662,0,0,928291,928258,4.927000045776367,1.0,1.0,1.0,0.0,0.0,0.0,-9.999999747378752e-05,0.0,0.0,0.0,0.0,0.0,1.0,0.0,0.0,0.0,0.0,0.0,0.0,0.0,0.0,0.0,0,1,0.07699999958276749,-81.5,-77.5
1702623865408745473,0,0,928311,928278,4.927000045776367,1.0,1.0,1.0,0.0,0.0,0.0,-9.999999747378752e-05,0.0,0.0,0.0,0.0,0.0,1.0,0.0,0.0,0.0,0.0,0.0,0.0,0.0,0.0,0.0,0,1,0.12800000607967377,-81.0,-77.5
1702623865428757004,0,0,928331,928298,4.927999973297119,1.0,1.0,1.0,0.0,0.0,0.0,-9.999999747378752e-05,0.0,0.0,0.0,0.0,0.0,1.0,0.0,0.0,0.0,0.0,0.0,0.0,0.0,0.0,0.0,0,1,0.08299999684095383,-81.0,-77.5
1702623865448742974,0,0,928351,928318,4.927999973297119,1.0,1.0,1.0,0.0,0.0,0.0,-9.999999747378752e-05,0.0,0.0,0.0,0.0,0.0,1.0,0.0,0.0,0.0,0.0,0.0,0.0,0.0,0.0,0.0,0,1,0.0860000029206276,-81.5,-77.0
1702623865468730648,0,0,928371,928338,4.927999973297119,1.0,1.0,1.0,0.0,0.0,0.0,-9.999999747378752e-05,0.0,0.0,0.0,0.0,0.0,1.0,0.0,0.0,0.0,0.0,0.0,0.0,0.0,0.0,0.0,0,1,0.08799999952316284,-82.0,-77.5
1702623865488760881,0,0,928391,928358,4.927999973297119,1.0,1.0,1.0,0.0,0.0,0.0,-9.999999747378752e-05,0.0,0.0,0.0,0.0,0.0,1.0,0.0,0.0,0.0,0.0,0.0,0.0,0.0,0.0,0.0,0,1,0.11900000274181366,-81.0,-77.5
1702623865508826911,0,0,928411,928378,4.927999973297119,1.0,1.0,1.0,0.0,0.0,0.0,-9.999999747378752e-05,0.0,0.0,0.0,0.0,0.0,1.0,0.0,0.0,0.0,0.0,0.0,0.0,0.0,0.0,0.0,0,1,0.0860000029206276,-81.0,-77.0
1702623865528753000,0,0,928431,928398,4.927999973297119,1.0,1.0,1.0,0.0,0.0,0.0,-9.999999747378752e-05,0.0,0.0,0.0,0.0,0.0,1.0,0.0,0.0,0.0,0.0,0.0,0.0,0.0,0.0,0.0,0,1,0.061000000685453415,-81.5,-77.5
1702623865548751069,0,0,928451,928418,4.927000045776367,1.0,1.0,1.0,0.0,0.0,0.0,-9.999999747378752e-05,0.0,0.0,0.0,0.0,0.0,1.0,0.0,0.0,0.0,0.0,0.0,0.0,0.0,0.0,0.0,0,1,0.10499999672174454,-82.5,-77.5
1702623865568826313,0,0,928471,928438,4.927000045776367,1.0,1.0,1.0,0.0,0.0,0.0,-9.999999747378752e-05,0.0,0.0,0.0,0.0,0.0,1.0,0.0,0.0,0.0,0.0,0.0,0.0,0.0,0.0,0.0,0,1,0.10899999737739563,-81.0,-77.5
1702623865588785276,0,0,928491,928458,4.927000045776367,1.0,1.0,1.0,0.0,0.0,0.0,-9.999999747378752e-05,0.0,0.0,0.0,0.0,0.0,1.0,0.0,0.0,0.0,0.0,0.0,0.0,0.0,0.0,0.0,0,1,0.08500000089406967,-81.0,-77.0
1702623865608763588,0,0,928511,928478,4.927000045776367,1.0,1.0,1.0,0.0,0.0,0.0,-9.999999747378752e-05,0.0,0.0,0.0,0.0,0.0,1.0,0.0,0.0,0.0,0.0,0.0,0.0,0.0,0.0,0.0,0,1,0.07199999690055847,-81.5,-77.5
1702623865628762778,0,0,928531,928498,4.927000045776367,1.0,1.0,1.0,0.0,0.0,0.0,-9.999999747378752e-05,0.0,0.0,0.0,0.0,0.0,1.0,0.0,0.0,0.0,0.0,0.0,0.0,0.0,0.0,0.0,0,1,0.11100000143051147,-82.5,-78.0
1702623865648737856,0,0,928551,928518,4.927000045776367,1.0,1.0,1.0,0.0,0.0,0.0,-9.999999747378752e-05,0.0,0.0,0.0,0.0,0.0,1.0,0.0,0.0,0.0,0.0,0.0,0.0,0.0,0.0,0.0,0,1,0.08500000089406967,-81.0,-77.5
1702623865668868395,0,0,928571,928538,4.927000045776367,1.0,1.0,1.0,0.0,0.0,0.0,-9.999999747378752e-05,0.0,0.0,0.0,0.0,0.0,1.0,0.0,0.0,0.0,0.0,0.0,0.0,0.0,0.0,0.0,0,1,0.07199999690055847,-81.5,-77.0
1702623865688939492,0,0,928591,928558,4.927000045776367,1.0,1.0,1.0,0.0,0.0,0.0,-9.999999747378752e-05,0.0,0.0,0.0,0.0,0.0,1.0,0.0,0.0,0.0,0.0,0.0,0.0,0.0,0.0,0.0,0,1,0.03500000014901161,-82.0,-77.5
1702623865708805550,0,0,928611,928578,4.927000045776367,1.0,1.0,1.0,0.0,0.0,0.0,-9.999999747378752e-05,0.0,0.0,0.0,0.0,0.0,1.0,0.0,0.0,0.0,0.0,0.0,0.0,0.0,0.0,0.0,0,1,0.07900000363588333,-80.5,-77.0
1702623865728725219,0,0,928631,928598,4.927000045776367,1.0,1.0,1.0,0.0,0.0,0.0,-9.999999747378752e-05,0.0,0.0,0.0,0.0,0.0,1.0,0.0,0.0,0.0,0.0,0.0,0.0,0.0,0.0,0.0,0,1,0.0820000022649765,-80.0,-77.0
1702623865748775021,0,0,928651,928618,4.927000045776367,1.0,1.0,1.0,0.0,0.0,0.0,-9.999999747378752e-05,0.0,0.0,0.0,0.0,0.0,1.0,0.0,0.0,0.0,0.0,0.0,0.0,0.0,0.0,0.0,0,1,0.07500000298023224,-80.5,-76.5
1702623865768726874,0,0,928671,928638,4.927000045776367,1.0,1.0,1.0,0.0,0.0,0.0,-9.999999747378752e-05,0.0,0.0,0.0,0.0,0.0,1.0,0.0,0.0,0.0,0.0,0.0,0.0,0.0,0.0,0.0,0,1,0.07999999821186066,-80.0,-77.0
1702623865788821503,0,0,928691,928658,4.927999973297119,1.0,1.0,1.0,0.0,0.0,0.0,-9.999999747378752e-05,0.0,0.0,0.0,0.0,0.0,1.0,0.0,0.0,0.0,0.0,0.0,0.0,0.0,0.0,0.0
1702623865808824438,0,0,928711,928678,4.927999973297119,1.0,1.0,1.0,0.0,0.0,0.0,-9.999999747378752e-05,0.0,0.0,0.0,0.0,0.0,1.0,0.0,0.0,0.0,0.0,0.0,0.0,0.0,0.0,0.0
1702623865828738642,0,0,928731,928698,4.927999973297119,1.0,1.0,1.0,0.0,0.0,0.0,-9.999999747378752e-05,0.0,0.0,0.0,0.0,0.0,1.0,0.0,0.0,0.0,0.0,0.0,0.0,0.0,0.0,0.0,0,1,0.07500000298023224,-81.0,-76.0
1702623865848896442,0,0,928751,928718,4.927999973297119,1.0,1.0,1.0,0.0,0.0,0.0,-9.999999747378752e-05,0.0,0.0,0.0,0.0,0.0,1.0,0.0,0.0,0.0,0.0,0.0,0.0,0.0,0.0,0.0,0,1,0.12099999934434891,-82.0,-77.0
1702623865868800273,0,0,928771,928738,4.927999973297119,1.0,1.0,1.0,0.0,0.0,0.0,-9.999999747378752e-05,0.0,0.0,0.0,0.0,0.0,1.0,0.0,0.0,0.0,0.0,0.0,0.0,0.0,0.0,0.0,0,1,0.0989999994635582,-81.5,-77.5
1702623865888804121,0,0,928791,928758,4.927999973297119,1.0,1.0,1.0,0.0,0.0,0.0,-9.999999747378752e-05,0.0,0.0,0.0,0.0,0.0,1.0,0.0,0.0,0.0,0.0,0.0,0.0,0.0,0.0,0.0,0,1,0.07500000298023224,-81.5,-77.5
1702623865908767851,0,0,928811,928778,4.927000045776367,1.0,1.0,1.0,0.0,0.0,0.0,-9.999999747378752e-05,0.0,0.0,0.0,0.0,0.0,1.0,0.0,0.0,0.0,0.0,0.0,0.0,0.0,0.0,0.0,0,1,0.0820000022649765,-81.5,-77.5
1702623865928738867,0,0,928831,928798,4.927000045776367,1.0,1.0,1.0,0.0,0.0,0.0,-9.999999747378752e-05,0.0,0.0,0.0,0.0,0.0,1.0,0.0,0.0,0.0,0.0,0.0,0.0,0.0,0.0,0.0,0,1,0.10199999809265137,-82.5,-77.5
1702623865948743824,0,0,928851,928818,4.927000045776367,1.0,1.0,1.0,0.0,0.0,0.0,-9.999999747378752e-05,0.0,0.0,0.0,0.0,0.0,1.0,0.0,0.0,0.0,0.0,0.0,0.0,0.0,0.0,0.0,0,1,0.06400000303983688,-81.5,-77.5
1702623865968786655,0,0,928871,928838,4.927000045776367,1.0,1.0,1.0,0.0,0.0,0.0,-9.999999747378752e-05,0.0,0.0,0.0,0.0,0.0,1.0,0.0,0.0,0.0,0.0,0.0,0.0,0.0,0.0,0.0,0,1,0.03799999877810478,-81.0,-77.0
1702623865988745136,0,0,928891,928858,4.927000045776367,1.0,1.0,1.0,0.0,0.0,0.0,-9.999999747378752e-05,0.0,0.0,0.0,0.0,0.0,1.0,0.0,0.0,0.0,0.0,0.0,0.0,0.0,0.0,0.0,0,1,0.05400000140070915,-81.5,-77.0
1702623866008763941,0,0,928911,928878,4.927000045776367,1.0,1.0,1.0,0.0,0.0,0.0,-9.999999747378752e-05,0.0,0.0,0.0,0.0,0.0,1.0,0.0,0.0,0.0,0.0,0.0,0.0,0.0,0.0,0.0,0,1,0.12200000137090683,-80.0,-76.5
1702623866028728237,0,0,928931,928898,4.927000045776367,1.0,1.0,1.0,0.0,0.0,0.0,-9.999999747378752e-05,0.0,0.0,0.0,0.0,0.0,1.0,0.0,0.0,0.0,0.0,0.0,0.0,0.0,0.0,0.0
1702623866048782739,0,0,928951,928918,4.927000045776367,1.0,1.0,1.0,0.0,0.0,0.0,-9.999999747378752e-05,0.0,0.0,0.0,0.0,0.0,1.0,0.0,0.0,0.0,0.0,0.0,0.0,0.0,0.0,0.0,0,1,0.07100000232458115,-80.5,-76.0
1702623866068793811,0,0,928971,928938,4.927000045776367,1.0,1.0,1.0,0.0,0.0,0.0,-9.999999747378752e-05,0.0,0.0,0.0,0.0,0.0,1.0,0.0,0.0,0.0,0.0,0.0,0.0,0.0,0.0,0.0,0,1,0.11400000005960464,-82.0,-76.5
1702623866088790952,0,0,928991,928958,4.927000045776367,1.0,1.0,1.0,0.0,0.0,0.0,-9.999999747378752e-05,0.0,0.0,0.0,0.0,0.0,1.0,0.0,0.0,0.0,0.0,0.0,0.0,0.0,0.0,0.0,0,1,0.11900000274181366,-81.0,-77.0
1702623866108748837,0,0,929011,928978,4.927000045776367,1.0,1.0,1.0,0.0,0.0,0.0,-9.999999747378752e-05,0.0,0.0,0.0,0.0,0.0,1.0,0.0,0.0,0.0,0.0,0.0,0.0,0.0,0.0,0.0,0,1,0.08500000089406967,-81.0,-77.0
1702623866128763507,0,0,929031,928998,4.927000045776367,1.0,1.0,1.0,0.0,0.0,0.0,-9.999999747378752e-05,0.0,0.0,0.0,0.0,0.0,1.0,0.0,0.0,0.0,0.0,0.0,0.0,0.0,0.0,0.0,0,1,0.05999999865889549,-81.5,-77.5
1702623866148823830,0,0,929051,929018,4.927000045776367,1.0,1.0,1.0,0.0,0.0,0.0,-9.999999747378752e-05,0.0,0.0,0.0,0.0,0.0,1.0,0.0,0.0,0.0,0.0,0.0,0.0,0.0,0.0,0.0,0,1,0.06599999964237213,-82.5,-77.5
1702623866168779453,0,0,929071,929038,4.927000045776367,1.0,1.0,1.0,0.0,0.0,0.0,-9.999999747378752e-05,0.0,0.0,0.0,0.0,0.0,1.0,0.0,0.0,0.0,0.0,0.0,0.0,0.0,0.0,0.0,0,1,0.052000001072883606,-81.0,-77.5
1702623866188772109,0,0,929091,929058,4.927000045776367,1.0,1.0,1.0,0.0,0.0,0.0,-9.999999747378752e-05,0.0,0.0,0.0,0.0,0.0,1.0,0.0,0.0,0.0,0.0,0.0,0.0,0.0,0.0,0.0,0,1,0.06800000369548798,-80.5,-77.0
1702623866208822237,0,0,929111,929078,4.927000045776367,1.0,1.0,1.0,0.0,0.0,0.0,-9.999999747378752e-05,0.0,0.0,0.0,0.0,0.0,1.0,0.0,0.0,0.0,0.0,0.0,0.0,0.0,0.0,0.0,0,1,0.06800000369548798,-81.0,-77.0
1702623866228952301,0,0,929131,929098,4.927000045776367,1.0,1.0,1.0,0.0,0.0,0.0,-9.999999747378752e-05,0.0,0.0,0.0,0.0,0.0,1.0,0.0,0.0,0.0,0.0,0.0,0.0,0.0,0.0,0.0,0,1,0.09300000220537186,-80.0,-77.0
1702623866248768561,0,0,929151,929118,4.927000045776367,1.0,1.0,1.0,0.0,0.0,0.0,-9.999999747378752e-05,0.0,0.0,0.0,0.0,0.0,1.0,0.0,0.0,0.0,0.0,0.0,0.0,0.0,0.0,0.0
1702623866268838087,0,0,929171,929138,4.927999973297119,1.0,1.0,1.0,0.0,0.0,0.0,-9.999999747378752e-05,0.0,0.0,0.0,0.0,0.0,1.0,0.0,0.0,0.0,0.0,0.0,0.0,0.0,0.0,0.0
1702623866288830391,0,0,929191,929158,4.927999973297119,1.0,1.0,1.0,0.0,0.0,0.0,-9.999999747378752e-05,0.0,0.0,0.0,0.0,0.0,1.0,0.0,0.0,0.0,0.0,0.0,0.0,0.0,0.0,0.0,0,1,0.09700000286102295,-81.5,-76.5
1702623866308757242,0,0,929211,929178,4.927999973297119,1.0,1.0,1.0,0.0,0.0,0.0,-9.999999747378752e-05,0.0,0.0,0.0,0.0,0.0,1.0,0.0,0.0,0.0,0.0,0.0,0.0,0.0,0.0,0.0,0,1,0.12399999797344208,-81.0,-77.0
1702623866328777156,0,0,929231,929198,4.927999973297119,1.0,1.0,1.0,0.0,0.0,0.0,-9.999999747378752e-05,0.0,0.0,0.0,0.0,0.0,1.0,0.0,0.0,0.0,0.0,0.0,0.0,0.0,0.0,0.0,0,1,0.08500000089406967,-81.5,-77.0
1702623866348752962,0,0,929251,929218,4.927999973297119,1.0,1.0,1.0,0.0,0.0,0.0,-9.999999747378752e-05,0.0,0.0,0.0,0.0,0.0,1.0,0.0,0.0,0.0,0.0,0.0,0.0,0.0,0.0,0.0,0,1,0.07699999958276749,-81.0,-77.0
1702623866368780339,0,0,929271,929238,4.927999973297119,1.0,1.0,1.0,0.0,0.0,0.0,-9.999999747378752e-05,0.0,0.0,0.0,0.0,0.0,1.0,0.0,0.0,0.0,0.0,0.0,0.0,0.0,0.0,0.0,0,1,0.07500000298023224,-82.0,-77.5
1702623866388773191,0,0,929291,929258,4.927999973297119,1.0,1.0,1.0,0.0,0.0,0.0,-9.999999747378752e-05,0.0,0.0,0.0,0.0,0.0,1.0,0.0,0.0,0.0,0.0,0.0,0.0,0.0,0.0,0.0,0,1,0.0689999982714653,-81.5,-78.0
1702623866408772934,0,0,929311,929278,4.927999973297119,1.0,1.0,1.0,0.0,0.0,0.0,-9.999999747378752e-05,0.0,0.0,0.0,0.0,0.0,1.0,0.0,0.0,0.0,0.0,0.0,0.0,0.0,0.0,0.0
1702623866428754040,0,0,929331,929298,4.927999973297119,1.0,1.0,1.0,0.0,0.0,0.0,-9.999999747378752e-05,0.0,0.0,0.0,0.0,0.0,1.0,0.0,0.0,0.0,0.0,0.0,0.0,0.0,0.0,0.0,0,1,0.01600000075995922,-81.0,-77.0
1702623866448775753,0,0,929351,929318,4.927999973297119,1.0,1.0,1.0,0.0,0.0,0.0,-9.999999747378752e-05,0.0,0.0,0.0,0.0,0.0,1.0,0.0,0.0,0.0,0.0,0.0,0.0,0.0,0.0,0.0,0,1,0.0860000029206276,-80.0,-76.5
1702623866468745425,0,0,929371,929338,4.927999973297119,1.0,1.0,1.0,0.0,0.0,0.0,-9.999999747378752e-05,0.0,0.0,0.0,0.0,0.0,1.0,0.0,0.0,0.0,0.0,0.0,0.0,0.0,0.0,0.0,0,1,0.0820000022649765,-80.5,-77.0
1702623866488830939,0,0,929391,929358,4.927999973297119,1.0,1.0,1.0,0.0,0.0,0.0,-9.999999747378752e-05,0.0,0.0,0.0,0.0,0.0,1.0,0.0,0.0,0.0,0.0,0.0,0.0,0.0,0.0,0.0,0,1,0.04699999839067459,-80.5,-76.5
1702623866508750981,0,0,929411,929378,4.929999828338623,1.0,1.0,1.0,0.0,0.0,0.0,-9.999999747378752e-05,0.0,0.0,0.0,0.0,0.0,1.0,0.0,0.0,0.0,0.0,0.0,0.0,0.0,0.0,0.0,0,1,0.057999998331069946,-80.5,-76.0
1702623866528729861,0,0,929431,929398,4.929999828338623,1.0,1.0,1.0,0.0,0.0,0.0,-9.999999747378752e-05,0.0,0.0,0.0,0.0,0.0,1.0,0.0,0.0,0.0,0.0,0.0,0.0,0.0,0.0,0.0
1702623866548859942,0,0,929451,929418,4.929999828338623,1.0,1.0,1.0,0.0,0.0,0.0,-9.999999747378752e-05,0.0,0.0,0.0,0.0,0.0,1.0,0.0,0.0,0.0,0.0,0.0,0.0,0.0,0.0,0.0
1702623866568821218,0,0,929471,929438,4.929999828338623,1.0,1.0,1.0,0.0,0.0,0.0,-9.999999747378752e-05,0.0,0.0,0.0,0.0,0.0,1.0,0.0,0.0,0.0,0.0,0.0,0.0,0.0,0.0,0.0,0,1,0.07900000363588333,-80.5,-76.5
1702623866588844763,0,0,929491,929458,4.929999828338623,1.0,1.0,1.0,0.0,0.0,0.0,-9.999999747378752e-05,0.0,0.0,0.0,0.0,0.0,1.0,0.0,0.0,0.0,0.0,0.0,0.0,0.0,0.0,0.0
1702623866608732200,0,0,929511,929478,4.929999828338623,1.0,1.0,1.0,0.0,0.0,0.0,-9.999999747378752e-05,0.0,0.0,0.0,0.0,0.0,1.0,0.0,0.0,0.0,0.0,0.0,0.0,0.0,0.0,0.0,0,1,0.10599999874830246,-80.0,-76.5
1702623866628742356,0,0,929531,929498,4.929999828338623,1.0,1.0,1.0,0.0,0.0,0.0,-9.999999747378752e-05,0.0,0.0,0.0,0.0,0.0,1.0,0.0,0.0,0.0,0.0,0.0,0.0,0.0,0.0,0.0,0,1,0.07500000298023224,-80.5,-76.5
1702623866648722773,0,0,929551,929518,4.929999828338623,1.0,1.0,1.0,0.0,0.0,0.0,-9.999999747378752e-05,0.0,0.0,0.0,0.0,0.0,1.0,0.0,0.0,0.0,0.0,0.0,0.0,0.0,0.0,0.0,0,1,0.0860000029206276,-80.5,-76.5
1702623866668780677,0,0,929571,929538,4.929999828338623,1.0,1.0,1.0,0.0,0.0,0.0,-9.999999747378752e-05,0.0,0.0,0.0,0.0,0.0,1.0,0.0,0.0,0.0,0.0,0.0,0.0,0.0,0.0,0.0,0,1,0.0689999982714653,-80.0,-76.5
1702623866688795779,0,0,929591,929558,4.929999828338623,1.0,1.0,1.0,0.0,0.0,0.0,-9.999999747378752e-05,0.0,0.0,0.0,0.0,0.0,1.0,0.0,0.0,0.0,0.0,0.0,0.0,0.0,0.0,0.0
1702623866708759429,0,0,929611,929578,4.929999828338623,1.0,1.0,1.0,0.0,0.0,0.0,-9.999999747378752e-05,0.0,0.0,0.0,0.0,0.0,1.0,0.0,0.0,0.0,0.0,0.0,0.0,0.0,0.0,0.0
1702623866728817525,0,0,929631,929598,4.929999828338623,1.0,1.0,1.0,0.0,0.0,0.0,-9.999999747378752e-05,0.0,0.0,0.0,0.0,0.0,1.0,0.0,0.0,0.0,0.0,0.0,0.0,0.0,0.0,0.0,0,1,0.10300000011920929,-80.5,-76.5
1702623866748772551,0,0,929651,929618,4.927000045776367,1.0,1.0,1.0,0.0,0.0,0.0,-9.999999747378752e-05,0.0,0.0,0.0,0.0,0.0,1.0,0.0,0.0,0.0,0.0,0.0,0.0,0.0,0.0,0.0
1702623866768799548,0,0,929671,929638,4.927000045776367,1.0,1.0,1.0,0.0,0.0,0.0,-9.999999747378752e-05,0.0,0.0,0.0,0.0,0.0,1.0,0.0,0.0,0.0,0.0,0.0,0.0,0.0,0.0,0.0
1702623866788747462,0,0,929691,929658,4.927000045776367,1.0,1.0,1.0,0.0,0.0,0.0,-9.999999747378752e-05,0.0,0.0,0.0,0.0,0.0,1.0,0.0,0.0,0.0,0.0,0.0,0.0,0.0,0.0,0.0
1702623866808886050,0,0,929711,929678,4.927000045776367,1.0,1.0,1.0,0.0,0.0,0.0,-9.999999747378752e-05,0.0,0.0,0.0,0.0,0.0,1.0,0.0,0.0,0.0,0.0,0.0,0.0,0.0,0.0,0.0
1702623866828747370,0,0,929731,929698,4.927000045776367,1.0,1.0,1.0,0.0,0.0,0.0,-9.999999747378752e-05,0.0,0.0,0.0,0.0,0.0,1.0,0.0,0.0,0.0,0.0,0.0,0.0,0.0,0.0,0.0,0,1,0.12399999797344208,-81.0,-77.0
1702623866848758817,0,0,929751,929718,4.927000045776367,1.0,1.0,1.0,0.0,0.0,0.0,-9.999999747378752e-05,0.0,0.0,0.0,0.0,0.0,1.0,0.0,0.0,0.0,0.0,0.0,0.0,0.0,0.0,0.0,0,1,0.08900000154972076,-81.0,-77.0
1702623866868831485,0,0,929771,929738,4.927999973297119,1.0,1.0,1.0,0.0,0.0,0.0,-9.999999747378752e-05,0.0,0.0,0.0,0.0,0.0,1.0,0.0,0.0,0.0,0.0,0.0,0.0,0.0,0.0,0.0,0,1,0.057999998331069946,-81.5,-77.0
1702623866888764120,0,0,929791,929758,4.927999973297119,1.0,1.0,1.0,0.0,0.0,0.0,-9.999999747378752e-05,0.0,0.0,0.0,0.0,0.0,1.0,0.0,0.0,0.0,0.0,0.0,0.0,0.0,0.0,0.0,0,1,0.08799999952316284,-82.0,-77.5
1702623866908745397,0,0,929811,929778,4.927999973297119,1.0,1.0,1.0,0.0,0.0,0.0,-9.999999747378752e-05,0.0,0.0,0.0,0.0,0.0,1.0,0.0,0.0,0.0,0.0,0.0,0.0,0.0,0.0,0.0,0,1,0.10300000011920929,-81.0,-77.5
1702623866928829849,0,0,929831,929798,4.927999973297119,1.0,1.0,1.0,0.0,0.0,0.0,-9.999999747378752e-05,0.0,0.0,0.0,0.0,0.0,1.0,0.0,0.0,0.0,0.0,0.0,0.0,0.0,0.0,0.0
1702623866948842778,0,0,929851,929818,4.927999973297119,1.0,1.0,1.0,0.0,0.0,0.0,-9.999999747378752e-05,0.0,0.0,0.0,0.0,0.0,1.0,0.0,0.0,0.0,0.0,0.0,0.0,0.0,0.0,0.0,0,1,0.05400000140070915,-80.5,-76.5
1702623866968865737,0,0,929871,929838,4.927999973297119,1.0,1.0,1.0,0.0,0.0,0.0,-9.999999747378752e-05,0.0,0.0,0.0,0.0,0.0,1.0,0.0,0.0,0.0,0.0,0.0,0.0,0.0,0.0,0.0,0,1,0.039000000804662704,-82.5,-77.5
1702623866988999650,0,0,929891,929858,4.927999973297119,1.0,1.0,1.0,0.0,0.0,0.0,-9.999999747378752e-05,0.0,0.0,0.0,0.0,0.0,1.0,0.0,0.0,0.0,0.0,0.0,0.0,0.0,0.0,0.0,0,1,0.06599999964237213,-81.0,-77.5
1702623867008772923,0,0,929911,929878,4.927999973297119,1.0,1.0,1.0,0.0,0.0,0.0,-9.999999747378752e-05,0.0,0.0,0.0,0.0,0.0,1.0,0.0,0.0,0.0,0.0,0.0,0.0,0.0,0.0,0.0
1702623867028778532,0,0,929931,929898,4.927999973297119,1.0,1.0,1.0,0.0,0.0,0.0,-9.999999747378752e-05,0.0,0.0,0.0,0.0,0.0,1.0,0.0,0.0,0.0,0.0,0.0,0.0,0.0,0.0,0.0,0,1,0.039000000804662704,-81.0,-76.5
1702623867048756879,0,0,929951,929918,4.927999973297119,1.0,1.0,1.0,0.0,0.0,0.0,-9.999999747378752e-05,0.0,0.0,0.0,0.0,0.0,1.0,0.0,0.0,0.0,0.0,0.0,0.0,0.0,0.0,0.0,0,1,0.08299999684095383,-81.0,-77.5
1702623867068778472,0,0,929971,929938,4.927999973297119,1.0,1.0,1.0,0.0,0.0,0.0,-9.999999747378752e-05,0.0,0.0,0.0,0.0,0.0,1.0,0.0,0.0,0.0,0.0,0.0,0.0,0.0,0.0,0.0
1702623867088793252,0,0,929991,929958,4.927999973297119,1.0,1.0,1.0,0.0,0.0,0.0,-9.999999747378752e-05,0.0,0.0,0.0,0.0,0.0,1.0,0.0,0.0,0.0,0.0,0.0,0.0,0.0,0.0,0.0
1702623867108739232,0,0,930011,929978,4.927000045776367,1.0,1.0,1.0,0.0,0.0,0.0,-9.999999747378752e-05,0.0,0.0,0.0,0.0,0.0,1.0,0.0,0.0,0.0,0.0,0.0,0.0,0.0,0.0,0.0
1702623867128778834,0,0,930031,929998,4.927000045776367,1.0,1.0,1.0,0.0,0.0,0.0,-9.999999747378752e-05,0.0,0.0,0.0,0.0,0.0,1.0,0.0,0.0,0.0,0.0,0.0,0.0,0.0,0.0,0.0
1702623867148736461,0,0,930051,930018,4.927000045776367,1.0,1.0,1.0,0.0,0.0,0.0,-9.999999747378752e-05,0.0,0.0,0.0,0.0,0.0,1.0,0.0,0.0,0.0,0.0,0.0,0.0,0.0,0.0,0.0
1702623867168726737,0,0,930071,930038,4.927000045776367,1.0,1.0,1.0,0.0,0.0,0.0,-9.999999747378752e-05,0.0,0.0,0.0,0.0,0.0,1.0,0.0,0.0,0.0,0.0,0.0,0.0,0.0,0.0,0.0
1702623867188726533,0,0,930091,930058,4.927000045776367,1.0,1.0,1.0,0.0,0.0,0.0,-9.999999747378752e-05,0.0,0.0,0.0,0.0,0.0,1.0,0.0,0.0,0.0,0.0,0.0,0.0,0.0,0.0,0.0
1702623867208717316,0,0,930111,930078,4.927000045776367,1.0,1.0,1.0,0.0,0.0,0.0,-9.999999747378752e-05,0.0,0.0,0.0,0.0,0.0,1.0,0.0,0.0,0.0,0.0,0.0,0.0,0.0,0.0,0.0,0,1,0.10899999737739563,-80.5,-77.0
1702623867228764466,0,0,930131,930098,4.927999973297119,1.0,1.0,1.0,0.0,0.0,0.0,-9.999999747378752e-05,0.0,0.0,0.0,0.0,0.0,1.0,0.0,0.0,0.0,0.0,0.0,0.0,0.0,0.0,0.0,0,1,0.061000000685453415,-80.5,-76.5
1702623867248822792,0,0,930151,930118,4.927999973297119,1.0,1.0,1.0,0.0,0.0,0.0,-9.999999747378752e-05,0.0,0.0,0.0,0.0,0.0,1.0,0.0,0.0,0.0,0.0,0.0,0.0,0.0,0.0,0.0,0,1,0.07500000298023224,-81.0,-76.5
1702623867268865028,0,0,930171,930138,4.927999973297119,1.0,1.0,1.0,0.0,0.0,0.0,-9.999999747378752e-05,0.0,0.0,0.0,0.0,0.0,1.0,0.0,0.0,0.0,0.0,0.0,0.0,0.0,0.0,0.0,0,1,0.12800000607967377,-82.0,-76.5
1702623867288917733,0,0,930191,930158,4.927999973297119,1.0,1.0,1.0,0.0,0.0,0.0,-9.999999747378752e-05,0.0,0.0,0.0,0.0,0.0,1.0,0.0,0.0,0.0,0.0,0.0,0.0,0.0,0.0,0.0,0,1,0.11400000005960464,-81.0,-77.0
1702623867308875638,0,0,930211,930178,4.927999973297119,1.0,1.0,1.0,0.0,0.0,0.0,-9.999999747378752e-05,0.0,0.0,0.0,0.0,0.0,1.0,0.0,0.0,0.0,0.0,0.0,0.0,0.0,0.0,0.0,0,1,0.07699999958276749,-81.5,-77.0
1702623867328789883,0,0,930231,930198,4.927999973297119,1.0,1.0,1.0,0.0,0.0,0.0,-9.999999747378752e-05,0.0,0.0,0.0,0.0,0.0,1.0,0.0,0.0,0.0,0.0,0.0,0.0,0.0,0.0,0.0,0,1,0.07500000298023224,-81.5,-77.5
1702623867348800062,0,0,930251,930218,4.927000045776367,1.0,1.0,1.0,0.0,0.0,0.0,-9.999999747378752e-05,0.0,0.0,0.0,0.0,0.0,1.0,0.0,0.0,0.0,0.0,0.0,0.0,0.0,0.0,0.0,0,1,0.09700000286102295,-82.5,-77.5
1702623867368750920,0,0,930271,930238,4.927000045776367,1.0,1.0,1.0,0.0,0.0,0.0,-9.999999747378752e-05,0.0,0.0,0.0,0.0,0.0,1.0,0.0,0.0,0.0,0.0,0.0,0.0,0.0,0.0,0.0,0,1,0.05999999865889549,-81.0,-77.5
1702623867388774119,0,0,930291,930258,4.927000045776367,1.0,1.0,1.0,0.0,0.0,0.0,-9.999999747378752e-05,0.0,0.0,0.0,0.0,0.0,1.0,0.0,0.0,0.0,0.0,0.0,0.0,0.0,0.0,0.0,0,1,0.04699999839067459,-81.0,-77.5
1702623867408741614,0,0,930311,930278,4.927000045776367,1.0,1.0,1.0,0.0,0.0,0.0,-9.999999747378752e-05,0.0,0.0,0.0,0.0,0.0,1.0,0.0,0.0,0.0,0.0,0.0,0.0,0.0,0.0,0.0,0,1,0.03500000014901161,-82.0,-77.5
1702623867428854205,0,0,930331,930298,4.927000045776367,1.0,1.0,1.0,0.0,0.0,0.0,-9.999999747378752e-05,0.0,0.0,0.0,0.0,0.0,1.0,0.0,0.0,0.0,0.0,0.0,0.0,0.0,0.0,0.0,0,1,0.07999999821186066,-80.5,-77.0
1702623867448756432,0,0,930351,930318,4.927000045776367,1.0,1.0,1.0,0.0,0.0,0.0,-9.999999747378752e-05,0.0,0.0,0.0,0.0,0.0,1.0,0.0,0.0,0.0,0.0,0.0,0.0,0.0,0.0,0.0
1702623867468757155,0,0,930371,930338,4.927000045776367,1.0,1.0,1.0,0.0,0.0,0.0,-9.999999747378752e-05,0.0,0.0,0.0,0.0,0.0,1.0,0.0,0.0,0.0,0.0,0.0,0.0,0.0,0.0,0.0
1702623867488758148,0,0,930391,930358,4.927000045776367,1.0,1.0,1.0,0.0,0.0,0.0,-9.999999747378752e-05,0.0,0.0,0.0,0.0,0.0,1.0,0.0,0.0,0.0,0.0,0.0,0.0,0.0,0.0,0.0,0,1,0.09600000083446503,-81.5,-76.5
1702623867508807079,0,0,930411,930378,4.927000045776367,1.0,1.0,1.0,0.0,0.0,0.0,-9.999999747378752e-05,0.0,0.0,0.0,0.0,0.0,1.0,0.0,0.0,0.0,0.0,0.0,0.0,0.0,0.0,0.0,0,1,0.12800000607967377,-81.0,-77.5
1702623867528763876,0,0,930431,930398,4.927000045776367,1.0,1.0,1.0,0.0,0.0,0.0,-9.999999747378752e-05,0.0,0.0,0.0,0.0,0.0,1.0,0.0,0.0,0.0,0.0,0.0,0.0,0.0,0.0,0.0,0,1,0.0689999982714653,-81.0,-77.5
1702623867548830220,0,0,930451,930418,4.927000045776367,1.0,1.0,1.0,0.0,0.0,0.0,-9.999999747378752e-05,0.0,0.0,0.0,0.0,0.0,1.0,0.0,0.0,0.0,0.0,0.0,0.0,0.0,0.0,0.0,0,1,0.05400000140070915,-81.0,-77.0
1702623867568861780,0,0,930471,930438,4.927000045776367,1.0,1.0,1.0,0.0,0.0,0.0,-9.999999747378752e-05,0.0,0.0,0.0,0.0,0.0,1.0,0.0,0.0,0.0,0.0,0.0,0.0,0.0,0.0,0.0,0,1,0.04600000008940697,-82.0,-77.5
1702623867588859601,0,0,930491,930458,4.927999973297119,1.0,1.0,1.0,0.0,0.0,0.0,-9.999999747378752e-05,0.0,0.0,0.0,0.0,0.0,1.0,0.0,0.0,0.0,0.0,0.0,0.0,0.0,0.0,0.0
1702623867608890150,0,0,930511,930478,4.927999973297119,1.0,1.0,1.0,0.0,0.0,0.0,-9.999999747378752e-05,0.0,0.0,0.0,0.0,0.0,1.0,0.0,0.0,0.0,0.0,0.0,0.0,0.0,0.0,0.0
1702623867628862155,0,0,930531,930498,4.927999973297119,1.0,1.0,1.0,0.0,0.0,0.0,-9.999999747378752e-05,0.0,0.0,0.0,0.0,0.0,1.0,0.0,0.0,0.0,0.0,0.0,0.0,0.0,0.0,0.0,0,1,0.08799999952316284,-80.5,-76.0
1702623867648852871,0,0,930551,930518,4.927999973297119,1.0,1.0,1.0,0.0,0.0,0.0,-9.999999747378752e-05,0.0,0.0,0.0,0.0,0.0,1.0,0.0,0.0,0.0,0.0,0.0,0.0,0.0,0.0,0.0,0,1,0.13099999725818634,-80.5,-76.5
1702623867668855181,0,0,930571,930538,4.927999973297119,1.0,1.0,1.0,0.0,0.0,0.0,-9.999999747378752e-05,0.0,0.0,0.0,0.0,0.0,1.0,0.0,0.0,0.0,0.0,0.0,0.0,0.0,0.0,0.0,0,1,0.10199999809265137,-81.0,-77.0
1702623867688915255,0,0,930591,930558,4.927999973297119,1.0,1.0,1.0,0.0,0.0,0.0,-9.999999747378752e-05,0.0,0.0,0.0,0.0,0.0,1.0,0.0,0.0,0.0,0.0,0.0,0.0,0.0,0.0,0.0,0,1,0.08799999952316284,-81.5,-77.5
1702623867708865940,0,0,930611,930578,4.927000045776367,1.0,1.0,1.0,0.0,0.0,0.0,-9.999999747378752e-05,0.0,0.0,0.0,0.0,0.0,1.0,0.0,0.0,0.0,0.0,0.0,0.0,0.0,0.0,0.0,0,1,0.04100000113248825,-81.5,-77.5
1702623867729082093,0,0,930631,930598,4.927000045776367,1.0,1.0,1.0,0.0,0.0,0.0,-9.999999747378752e-05,0.0,0.0,0.0,0.0,0.0,1.0,0.0,0.0,0.0,0.0,0.0,0.0,0.0,0.0,0.0,0,1,0.07500000298023224,-80.0,-77.0
1702623867749023991,0,0,930651,930618,4.927000045776367,1.0,1.0,1.0,0.0,0.0,0.0,-9.999999747378752e-05,0.0,0.0,0.0,0.0,0.0,1.0,0.0,0.0,0.0,0.0,0.0,0.0,0.0,0.0,0.0
1702623867768872132,0,0,930671,930638,4.927000045776367,1.0,1.0,1.0,0.0,0.0,0.0,-9.999999747378752e-05,0.0,0.0,0.0,0.0,0.0,1.0,0.0,0.0,0.0,0.0,0.0,0.0,0.0,0.0,0.0,0,1,0.06400000303983688,-80.5,-76.5
1702623867788861405,0,0,930691,930658,4.927000045776367,1.0,1.0,1.0,0.0,0.0,0.0,-9.999999747378752e-05,0.0,0.0,0.0,0.0,0.0,1.0,0.0,0.0,0.0,0.0,0.0,0.0,0.0,0.0,0.0,0,1,0.1120000034570694,-82.0,-77.0
1702623867808853760,0,0,930711,930678,4.927000045776367,1.0,1.0,1.0,0.0,0.0,0.0,-9.999999747378752e-05,0.0,0.0,0.0,0.0,0.0,1.0,0.0,0.0,0.0,0.0,0.0,0.0,0.0,0.0,0.0,0,1,0.06800000369548798,-81.0,-77.5
1702623867828757252,0,0,930731,930698,4.927000045776367,1.0,1.0,1.0,0.0,0.0,0.0,-9.999999747378752e-05,0.0,0.0,0.0,0.0,0.0,1.0,0.0,0.0,0.0,0.0,0.0,0.0,0.0,0.0,0.0
1702623867848908060,0,0,930751,930718,4.927000045776367,1.0,1.0,1.0,0.0,0.0,0.0,-9.999999747378752e-05,0.0,0.0,0.0,0.0,0.0,1.0,0.0,0.0,0.0,0.0,0.0,0.0,0.0,0.0,0.0,0,1,0.08900000154972076,-80.5,-76.5
