%time,field.header.seq,field.header.stamp,field.header.frame_id,field.orientation.x,field.orientation.y,field.orientation.z,field.orientation.w,field.orientation_covariance0,field.orientation_covariance1,field.orientation_covariance2,field.orientation_covariance3,field.orientation_covariance4,field.orientation_covariance5,field.orientation_covariance6,field.orientation_covariance7,field.orientation_covariance8,field.angular_velocity.x,field.angular_velocity.y,field.angular_velocity.z,field.angular_velocity_covariance0,field.angular_velocity_covariance1,field.angular_velocity_covariance2,field.angular_velocity_covariance3,field.angular_velocity_covariance4,field.angular_velocity_covariance5,field.angular_velocity_covariance6,field.angular_velocity_covariance7,field.angular_velocity_covariance8,field.linear_acceleration.x,field.linear_acceleration.y,field.linear_acceleration.z,field.linear_acceleration_covariance0,field.linear_acceleration_covariance1,field.linear_acceleration_covariance2,field.linear_acceleration_covariance3,field.linear_acceleration_covariance4,field.linear_acceleration_covariance5,field.linear_acceleration_covariance6,field.linear_acceleration_covariance7,field.linear_acceleration_covariance8
1702623864132786853,188,1702623864132550239,base_link,-0.00756855315867843,-0.015452351076722924,-0.9789635983923424,0.2033081770908448,0.0,0.0,0.0,0.0,0.0,0.0,0.0,0.0,0.0,0.0010652896016836166,-0.019173167645931244,0.004423173144459724,0.0,0.0,0.0,0.0,0.0,0.0,0.0,0.0,0.0,0.2557769048073296,0.265209859320525,9.793071117146367,0.0,0.0,0.0,0.0,0.0,0.0,0.0,0.0,0.0
1702623864135946940,189,1702623864135820388,base_link,-0.007604738249654056,-0.015496238864636754,-0.9789601908346067,0.2033198940051732,0.0,0.0,0.0,0.0,0.0,0.0,0.0,0.0,0.0,0.0010652896016836166,-0.019173167645931244,0.004423173144459724,0.0,0.0,0.0,0.0,0.0,0.0,0.0,0.0,0.0,0.2557769048073296,0.265209859320525,9.793071117146367,0.0,0.0,0.0,0.0,0.0,0.0,0.0,0.0,0.0
1702623864139397500,190,1702623864139252901,base_link,-0.007604738249654056,-0.015496238864636754,-0.9789601908346067,0.2033198940051732,0.0,0.0,0.0,0.0,0.0,0.0,0.0,0.0,0.0,0.017044473439455032,0.02663288824260235,0.0022925063967704773,0.0,0.0,0.0,0.0,0.0,0.0,0.0,0.0,0.0,0.3750973240530761,0.4571227154692436,9.782143978724207,0.0,0.0,0.0,0.0,0.0,0.0,0.0,0.0,0.0
1702623864142706763,191,1702623864142534732,base_link,-0.007545549778296303,-0.01552283210308249,-0.9789592340655363,0.20332467730175147,0.0,0.0,0.0,0.0,0.0,0.0,0.0,0.0,0.0,0.017044473439455032,0.02663288824260235,0.0022925063967704773,0.0,0.0,0.0,0.0,0.0,0.0,0.0,0.0,0.0,0.3750973240530761,0.4571227154692436,9.782143978724207,0.0,0.0,0.0,0.0,0.0,0.0,0.0,0.0,0.0
1702623864146094738,192,1702623864145950317,base_link,-0.007545549778296303,-0.01552283210308249,-0.9789592340655363,0.20332467730175147,0.0,0.0,0.0,0.0,0.0,0.0,0.0,0.0,0.0,-0.01704411767423153,-0.00212929118424654,0.0012272614985704422,0.0,0.0,0.0,0.0,0.0,0.0,0.0,0.0,0.0,0.19529096015467873,0.32925680090252357,9.79252017613144,0.0,0.0,0.0,0.0,0.0,0.0,0.0,0.0,0.0
1702623864149561515,193,1702623864149278402,base_link,-0.007606005235593235,-0.01545312365716121,-0.9789596474413715,0.20332574439814102,0.0,0.0,0.0,0.0,0.0,0.0,0.0,0.0,0.0,-0.01704411767423153,-0.00212929118424654,0.0012272614985704422,0.0,0.0,0.0,0.0,0.0,0.0,0.0,0.0,0.0,0.19529096015467873,0.32925680090252357,9.79252017613144,0.0,0.0,0.0,0.0,0.0,0.0,0.0,0.0,0.0
1702623864153225615,194,1702623864152844190,base_link,-0.007606005235593235,-0.01545312365716121,-0.9789596474413715,0.20332574439814102,0.0,0.0,0.0,0.0,0.0,0.0,0.0,0.0,0.0,-0.036219485104084015,-0.05219574272632599,0.0022927075624465942,0.0,0.0,0.0,0.0,0.0,0.0,0.0,0.0,0.0,0.25840150781281757,0.15748762508439562,9.795326758649011,0.0,0.0,0.0,0.0,0.0,0.0,0.0,0.0,0.0
1702623864156450334,195,1702623864156079530,base_link,-0.007792221174322973,-0.015380630145094627,-0.9789590857996773,0.20332689402971363,0.0,0.0,0.0,0.0,0.0,0.0,0.0,0.0,0.0,-0.036219485104084015,-0.05219574272632599,0.0022927075624465942,0.0,0.0,0.0,0.0,0.0,0.0,0.0,0.0,0.0,0.25840150781281757,0.15748762508439562,9.795326758649011,0.0,0.0,0.0,0.0,0.0,0.0,0.0,0.0,0.0
1702623864159795479,196,1702623864159474611,base_link,-0.007792221174322973,-0.015380630145094627,-0.9789590857996773,0.20332689402971363,0.0,0.0,0.0,0.0,0.0,0.0,0.0,0.0,0.0,-0.01704517938196659,-0.02343272976577282,0.00122753344476223,0.0,0.0,0.0,0.0,0.0,0.0,0.0,0.0,0.0,0.4104850733157892,0.18094990159093777,9.78972722488728,0.0,0.0,0.0,0.0,0.0,0.0,0.0,0.0,0.0
1702623864163005863,197,1702623864162670373,base_link,-0.007845617534152787,-0.015338626348173675,-0.9789590322453199,0.20332827155259509,0.0,0.0,0.0,0.0,0.0,0.0,0.0,0.0,0.0,-0.01704517938196659,-0.02343272976577282,0.00122753344476223,0.0,0.0,0.0,0.0,0.0,0.0,0.0,0.0,0.0,0.4104850733157892,0.18094990159093777,9.78972722488728,0.0,0.0,0.0,0.0,0.0,0.0,0.0,0.0,0.0
1702623864166535394,198,1702623864166185379,base_link,-0.007845617534152787,-0.015338626348173675,-0.9789590322453199,0.20332827155259509,0.0,0.0,0.0,0.0,0.0,0.0,0.0,0.0,0.0,-0.0021315980702638626,0.023438619449734688,-0.001968229189515114,0.0,0.0,0.0,0.0,0.0,0.0,0.0,0.0,0.0,0.39612913762089474,0.19430375952412868,9.79006270436316,0.0,0.0,0.0,0.0,0.0,0.0,0.0,0.0,0.0
1702623864169937405,199,1702623864169431924,base_link,-0.007802773043582317,-0.01533034283174687,-0.9789602525892056,0.20332466936397578,0.0,0.0,0.0,0.0,0.0,0.0,0.0,0.0,0.0,-0.0021315980702638626,0.023438619449734688,-0.001968229189515114,0.0,0.0,0.0,0.0,0.0,0.0,0.0,0.0,0.0,0.39612913762089474,0.19430375952412868,9.79006270436316,0.0,0.0,0.0,0.0,0.0,0.0,0.0,0.0,0.0
1702623864173251182,200,1702623864172796010,base_link,-0.007802773043582317,-0.01533034283174687,-0.9789602525892056,0.20332466936397578,0.0,0.0,0.0,0.0,0.0,0.0,0.0,0.0,0.0,0.0031947121024131775,0.0021332185715436935,0.0001622457057237625,0.0,0.0,0.0,0.0,0.0,0.0,0.0,0.0,0.0,0.4149698353163013,0.1293724877913873,9.790355601058637,0.0,0.0,0.0,0.0,0.0,0.0,0.0,0.0,0.0
1702623864176419767,201,1702623864175983428,base_link,-0.007808643572239311,-0.015329276022843433,-0.978960457207647,0.20332353923235696,0.0,0.0,0.0,0.0,0.0,0.0,0.0,0.0,0.0,0.0031947121024131775,0.0021332185715436935,0.0001622457057237625,0.0,0.0,0.0,0.0,0.0,0.0,0.0,0.0,0.0,0.4149698353163013,0.1293724877913873,9.790355601058637,0.0,0.0,0.0,0.0,0.0,0.0,0.0,0.0,0.0
1702623864179891108,202,1702623864179428577,base_link,-0.007808643572239311,-0.015329276022843433,-0.978960457207647,0.20332353923235696,0.0,0.0,0.0,0.0,0.0,0.0,0.0,0.0,0.0,-0.0053275469690561295,-0.0074540311470627785,-0.000903034582734108,0.0,0.0,0.0,0.0,0.0,0.0,0.0,0.0,0.0,0.32672002917160786,0.2038197419858529,9.792431339320942,0.0,0.0,0.0,0.0,0.0,0.0,0.0,0.0,0.0
1702623864183006349,203,1702623864182633876,base_link,-0.007841878490876843,-0.015300096387953866,-0.9789613218917016,0.20332029468871465,0.0,0.0,0.0,0.0,0.0,0.0,0.0,0.0,0.0,-0.0053275469690561295,-0.0074540311470627785,-0.000903034582734108,0.0,0.0,0.0,0.0,0.0,0.0,0.0,0.0,0.0,0.32672002917160786,0.2038197419858529,9.792431339320942,0.0,0.0,0.0,0.0,0.0,0.0,0.0,0.0,0.0
1702623864186573387,204,1702623864186195373,base_link,-0.007841878490876843,-0.015300096387953866,-0.9789613218917016,0.20332029468871465,0.0,0.0,0.0,0.0,0.0,0.0,0.0,0.0,0.0,-0.013849901035428047,-0.004258131608366966,0.0012275539338588715,0.0,0.0,0.0,0.0,0.0,0.0,0.0,0.0,0.0,0.36965282345042266,0.1518308599397824,9.791848864238311,0.0,0.0,0.0,0.0,0.0,0.0,0.0,0.0,0.0
1702623864189666288,205,1702623864189354896,base_link,-0.007848448545899205,-0.015255168041667488,-0.9789611297999463,0.20332434198653077,0.0,0.0,0.0,0.0,0.0,0.0,0.0,0.0,0.0,-0.013849901035428047,-0.004258131608366966,0.0012275539338588715,0.0,0.0,0.0,0.0,0.0,0.0,0.0,0.0,0.0,0.36965282345042266,0.1518308599397824,9.791848864238311,0.0,0.0,0.0,0.0,0.0,0.0,0.0,0.0,0.0
1702623864193018649,206,1702623864192754030,base_link,-0.007848448545899205,-0.015255168041667488,-0.9789611297999463,0.20332434198653077,0.0,0.0,0.0,0.0,0.0,0.0,0.0,0.0,0.0,-0.003197360783815384,0.010655323043465614,-0.0009029507637023926,0.0,0.0,0.0,0.0,0.0,0.0,0.0,0.0,0.0,0.30266730709928136,0.1378721495797793,9.794354688879892,0.0,0.0,0.0,0.0,0.0,0.0,0.0,0.0,0.0
1702623864196213595,207,1702623864195967674,base_link,-0.007842240639090258,-0.015245612555397412,-0.97896152216497,0.20332340908024932,0.0,0.0,0.0,0.0,0.0,0.0,0.0,0.0,0.0,-0.003197360783815384,0.010655323043465614,-0.0009029507637023926,0.0,0.0,0.0,0.0,0.0,0.0,0.0,0.0,0.0,0.30266730709928136,0.1378721495797793,9.794354688879892,0.0,0.0,0.0,0.0,0.0,0.0,0.0,0.0,0.0
1702623864199939968,208,1702623864199468135,base_link,-0.007842240639090258,-0.015245612555397412,-0.97896152216497,0.20332340908024932,0.0,0.0,0.0,0.0,0.0,0.0,0.0,0.0,0.0,0.011716332286596298,-0.0031930170953273773,-0.0009030364453792572,0.0,0.0,0.0,0.0,0.0,0.0,0.0,0.0,0.0,0.2819066198588513,0.2368244344813066,9.793081376406121,0.0,0.0,0.0,0.0,0.0,0.0,0.0,0.0,0.0
1702623864203010969,209,1702623864202674865,base_link,-0.007845280040394378,-0.01526837076752665,-0.9789613343300441,0.2033224884805729,0.0,0.0,0.0,0.0,0.0,0.0,0.0,0.0,0.0,0.011716332286596298,-0.0031930170953273773,-0.0009030364453792572,0.0,0.0,0.0,0.0,0.0,0.0,0.0,0.0,0.0,0.2819066198588513,0.2368244344813066,9.793081376406121,0.0,0.0,0.0,0.0,0.0,0.0,0.0,0.0,0.0
1702623864206376771,210,1702623864206094741,base_link,-0.007845280040394378,-0.01526837076752665,-0.9789613343300441,0.2033224884805729,0.0,0.0,0.0,0.0,0.0,0.0,0.0,0.0,0.0,-0.0063932351768016815,0.0021332427859306335,0.00016221031546592712,0.0,0.0,0.0,0.0,0.0,0.0,0.0,0.0,0.0,0.31384243854481036,0.2477853182620348,9.791838711897885,0.0,0.0,0.0,0.0,0.0,0.0,0.0,0.0,0.0
1702623864209621768,211,1702623864209301471,base_link,-0.007854224209440347,-0.015241657885144273,-0.9789622855620072,0.20331956736672302,0.0,0.0,0.0,0.0,0.0,0.0,0.0,0.0,0.0,-0.0063932351768016815,0.0021332427859306335,0.00016221031546592712,0.0,0.0,0.0,0.0,0.0,0.0,0.0,0.0,0.0,0.31384243854481036,0.2477853182620348,9.791838711897885,0.0,0.0,0.0,0.0,0.0,0.0,0.0,0.0,0.0
1702623864212988725,212,1702623864212740421,base_link,-0.007854224209440347,-0.015241657885144273,-0.9789622855620072,0.20331956736672302,0.0,0.0,0.0,0.0,0.0,0.0,0.0,0.0,0.0,-0.005328133702278137,0.00106796994805336,0.0001622270792722702,0.0,0.0,0.0,0.0,0.0,0.0,0.0,0.0,0.0,0.2804594965204263,0.22896079866970623,9.793309931962943,0.0,0.0,0.0,0.0,0.0,0.0,0.0,0.0,0.0
1702623864216289680,213,1702623864215970754,base_link,-0.007874605136441983,-0.01522044613544674,-0.9789634590850843,0.203314717592086,0.0,0.0,0.0,0.0,0.0,0.0,0.0,0.0,0.0,-0.005328133702278137,0.00106796994805336,0.0001622270792722702,0.0,0.0,0.0,0.0,0.0,0.0,0.0,0.0,0.0,0.2804594965204263,0.22896079866970623,9.793309931962943,0.0,0.0,0.0,0.0,0.0,0.0,0.0,0.0,0.0
1702623864219965498,214,1702623864219438076,base_link,-0.007874605136441983,-0.01522044613544674,-0.9789634590850843,0.203314717592086,0.0,0.0,0.0,0.0,0.0,0.0,0.0,0.0,0.0,-0.008524149656295776,-0.00851919874548912,-0.0009030252695083618,0.0,0.0,0.0,0.0,0.0,0.0,0.0,0.0,0.0,0.2783718920407148,0.2926188511279851,9.791674182574,0.0,0.0,0.0,0.0,0.0,0.0,0.0,0.0,0.0
1702623864223043034,215,1702623864222665071,base_link,-0.007893373313338493,-0.015192779349188567,-0.9789643823731227,0.20331161343660017,0.0,0.0,0.0,0.0,0.0,0.0,0.0,0.0,0.0,-0.008524149656295776,-0.00851919874548912,-0.0009030252695083618,0.0,0.0,0.0,0.0,0.0,0.0,0.0,0.0,0.0,0.2783718920407148,0.2926188511279851,9.791674182574,0.0,0.0,0.0,0.0,0.0,0.0,0.0,0.0,0.0
1702623864226439953,216,1702623864226097822,base_link,-0.007893373313338493,-0.015192779349188567,-0.9789643823731227,0.20331161343660017,0.0,0.0,0.0,0.0,0.0,0.0,0.0,0.0,0.0,-0.006393739953637123,0.009590094909071922,0.0033580679446458817,0.0,0.0,0.0,0.0,0.0,0.0,0.0,0.0,0.0,0.35549999674732174,0.15277626407302658,9.79235820246832,0.0,0.0,0.0,0.0,0.0,0.0,0.0,0.0,0.0
1702623864229963639,217,1702623864229470729,base_link,-0.007866691131731707,-0.015163417404191575,-0.9789637816938905,0.2033177318259796,0.0,0.0,0.0,0.0,0.0,0.0,0.0,0.0,0.0,-0.006393739953637123,0.009590094909071922,0.0033580679446458817,0.0,0.0,0.0,0.0,0.0,0.0,0.0,0.0,0.0,0.35549999674732174,0.15277626407302658,9.79235820246832,0.0,0.0,0.0,0.0,0.0,0.0,0.0,0.0,0.0
1702623864233174480,218,1702623864232837438,base_link,-0.007866691131731707,-0.015163417404191575,-0.9789637816938905,0.2033177318259796,0.0,0.0,0.0,0.0,0.0,0.0,0.0,0.0,0.0,-0.002132721245288849,0.019177062436938286,0.00016228482127189636,0.0,0.0,0.0,0.0,0.0,0.0,0.0,0.0,0.0,0.31946189274250303,0.12029592110411183,9.794052939945296,0.0,0.0,0.0,0.0,0.0,0.0,0.0,0.0,0.0
1702623864236415694,219,1702623864236040592,base_link,-0.007817297164899015,-0.01513489501983176,-0.9789649857412285,0.20331596472104857,0.0,0.0,0.0,0.0,0.0,0.0,0.0,0.0,0.0,-0.002132721245288849,0.019177062436938286,0.00016228482127189636,0.0,0.0,0.0,0.0,0.0,0.0,0.0,0.0,0.0,0.31946189274250303,0.12029592110411183,9.794052939945296,0.0,0.0,0.0,0.0,0.0,0.0,0.0,0.0,0.0
1702623864239957875,220,1702623864239552497,base_link,-0.007817297164899015,-0.01513489501983176,-0.9789649857412285,0.20331596472104857,0.0,0.0,0.0,0.0,0.0,0.0,0.0,0.0,0.0,-0.009589653462171555,0.015980856493115425,0.002292849123477936,0.0,0.0,0.0,0.0,0.0,0.0,0.0,0.0,0.0,0.29715696224967836,0.21115648421095462,9.793217585602918,0.0,0.0,0.0,0.0,0.0,0.0,0.0,0.0,0.0
1702623864243291041,221,1702623864242774486,base_link,-0.007786640479977392,-0.015083668082485029,-0.9789657761134135,0.2033171423807525,0.0,0.0,0.0,0.0,0.0,0.0,0.0,0.0,0.0,-0.009589653462171555,0.015980856493115425,0.002292849123477936,0.0,0.0,0.0,0.0,0.0,0.0,0.0,0.0,0.0,0.29715696224967836,0.21115648421095462,9.793217585602918,0.0,0.0,0.0,0.0,0.0,0.0,0.0,0.0,0.0
1702623864246611280,222,1702623864246246814,base_link,-0.007786640479977392,-0.015083668082485029,-0.9789657761134135,0.2033171423807525,0.0,0.0,0.0,0.0,0.0,0.0,0.0,0.0,0.0,-0.01704672910273075,0.007458502426743507,-0.0009028632193803787,0.0,0.0,0.0,0.0,0.0,0.0,0.0,0.0,0.0,0.30834976387844554,0.22118494805553668,9.792650184800324,0.0,0.0,0.0,0.0,0.0,0.0,0.0,0.0,0.0
1702623864249697783,223,1702623864249366998,base_link,-0.007788486524657025,-0.015031564421724878,-0.9789671258030315,0.20331443172003846,0.0,0.0,0.0,0.0,0.0,0.0,0.0,0.0,0.0,-0.01704672910273075,0.007458502426743507,-0.0009028632193803787,0.0,0.0,0.0,0.0,0.0,0.0,0.0,0.0,0.0,0.30834976387844554,0.22118494805553668,9.792650184800324,0.0,0.0,0.0,0.0,0.0,0.0,0.0,0.0,0.0
1702623864253245861,224,1702623864252877235,base_link,-0.007788486524657025,-0.015031564421724878,-0.9789671258030315,0.20331443172003846,0.0,0.0,0.0,0.0,0.0,0.0,0.0,0.0,0.0,-0.008524823933839798,0.0031973905861377716,-0.001968078315258026,0.0,0.0,0.0,0.0,0.0,0.0,0.0,0.0,0.0,0.250109790120599,0.18790695073452648,9.795005669766175,0.0,0.0,0.0,0.0,0.0,0.0,0.0,0.0,0.0
1702623864256292567,225,1702623864256000280,base_link,-0.007790783775927743,-0.014994547016612646,-0.9789679358312896,0.2033131768040312,0.0,0.0,0.0,0.0,0.0,0.0,0.0,0.0,0.0,-0.008524823933839798,0.0031973905861377716,-0.001968078315258026,0.0,0.0,0.0,0.0,0.0,0.0,0.0,0.0,0.0,0.250109790120599,0.18790695073452648,9.795005669766175,0.0,0.0,0.0,0.0,0.0,0.0,0.0,0.0,0.0
1702623864259695462,226,1702623864259415388,base_link,-0.007790783775927743,-0.014994547016612646,-0.9789679358312896,0.2033131768040312,0.0,0.0,0.0,0.0,0.0,0.0,0.0,0.0,0.0,-0.010655535385012627,1.5348196029663086e-06,0.00016250275075435638,0.0,0.0,0.0,0.0,0.0,0.0,0.0,0.0,0.0,0.308075598481276,0.2675303645303208,9.791502281553873,0.0,0.0,0.0,0.0,0.0,0.0,0.0,0.0,0.0
1702623864262895877,227,1702623864262625932,base_link,-0.0078075533311770095,-0.014965146683523948,-0.978969201702098,0.2033086043788565,0.0,0.0,0.0,0.0,0.0,0.0,0.0,0.0,0.0,-0.010655535385012627,1.5348196029663086e-06,0.00016250275075435638,0.0,0.0,0.0,0.0,0.0,0.0,0.0,0.0,0.0,0.308075598481276,0.2675303645303208,9.791502281553873,0.0,0.0,0.0,0.0,0.0,0.0,0.0,0.0,0.0
1702623864266679426,228,1702623864266109466,base_link,-0.0078075533311770095,-0.014965146683523948,-0.978969201702098,0.2033086043788565,0.0,0.0,0.0,0.0,0.0,0.0,0.0,0.0,0.0,-0.011721042916178703,-0.005324662663042545,-0.0030332598835229874,0.0,0.0,0.0,0.0,0.0,0.0,0.0,0.0,0.0,0.20654730842312,0.3014124210741651,9.793185833108927,0.0,0.0,0.0,0.0,0.0,0.0,0.0,0.0,0.0
1702623864266795699,229,1702623864266396760,base_link,-0.007842341780116677,-0.014936409472082158,-0.9789714692762486,0.20329845963653856,0.0,0.0,0.0,0.0,0.0,0.0,0.0,0.0,0.0,-0.011721042916178703,-0.005324662663042545,-0.0030332598835229874,0.0,0.0,0.0,0.0,0.0,0.0,0.0,0.0,0.0,0.20654730842312,0.3014124210741651,9.793185833108927,0.0,0.0,0.0,0.0,0.0,0.0,0.0,0.0,0.0
1702623864273301129,230,1702623864272736310,base_link,-0.007842341780116677,-0.014936409472082158,-0.9789714692762486,0.20329845963653856,0.0,0.0,0.0,0.0,0.0,0.0,0.0,0.0,0.0,-0.00852549821138382,-0.007454930804669857,-0.001967974007129669,0.0,0.0,0.0,0.0,0.0,0.0,0.0,0.0,0.0,0.346017652653372,0.16927346987937827,9.792426577536707,0.0,0.0,0.0,0.0,0.0,0.0,0.0,0.0,0.0
1702623864273313538,231,1702623864273010730,base_link,-0.00788369797140799,-0.014908699244876547,-0.978972623934409,0.2032933338309441,0.0,0.0,0.0,0.0,0.0,0.0,0.0,0.0,0.0,-0.00852549821138382,-0.007454930804669857,-0.001967974007129669,0.0,0.0,0.0,0.0,0.0,0.0,0.0,0.0,0.0,0.346017652653372,0.16927346987937827,9.792426577536707,0.0,0.0,0.0,0.0,0.0,0.0,0.0,0.0,0.0
1702623864276537087,232,1702623864276115894,base_link,-0.00788369797140799,-0.014908699244876547,-0.978972623934409,0.2032933338309441,0.0,0.0,0.0,0.0,0.0,0.0,0.0,0.0,0.0,-0.004264671355485916,-0.015976695343852043,-0.003033239394426346,0.0,0.0,0.0,0.0,0.0,0.0,0.0,0.0,0.0,0.36414040874322995,0.13040071342526055,9.792364240399685,0.0,0.0,0.0,0.0,0.0,0.0,0.0,0.0,0.0
1702623864279586775,233,1702623864279312849,base_link,-0.007949076434666994,-0.014899470918786729,-0.9789733277586725,0.20328807512317731,0.0,0.0,0.0,0.0,0.0,0.0,0.0,0.0,0.0,-0.004264671355485916,-0.015976695343852043,-0.003033239394426346,0.0,0.0,0.0,0.0,0.0,0.0,0.0,0.0,0.0,0.36414040874322995,0.13040071342526055,9.792364240399685,0.0,0.0,0.0,0.0,0.0,0.0,0.0,0.0,0.0
1702623864283126740,234,1702623864282783746,base_link,-0.007949076434666994,-0.014899470918786729,-0.9789733277586725,0.20328807512317731,0.0,0.0,0.0,0.0,0.0,0.0,0.0,0.0,0.0,-0.004264891147613525,-0.018106745555996895,-0.003033256158232689,0.0,0.0,0.0,0.0,0.0,0.0,0.0,0.0,0.0,0.38008094029050676,0.10753123059743278,9.792036331288507,0.0,0.0,0.0,0.0,0.0,0.0,0.0,0.0,0.0
1702623864286276889,235,1702623864285995960,base_link,-0.008016262451884259,-0.014890836647541619,-0.9789744055896701,0.20328087888581914,0.0,0.0,0.0,0.0,0.0,0.0,0.0,0.0,0.0,-0.004264891147613525,-0.018106745555996895,-0.003033256158232689,0.0,0.0,0.0,0.0,0.0,0.0,0.0,0.0,0.0,0.38008094029050676,0.10753123059743278,9.792036331288507,0.0,0.0,0.0,0.0,0.0,0.0,0.0,0.0,0.0
1702623864289651401,236,1702623864289400100,base_link,-0.008016262451884259,-0.014890836647541619,-0.9789744055896701,0.20328087888581914,0.0,0.0,0.0,0.0,0.0,0.0,0.0,0.0,0.0,-0.0031998269259929657,-0.014910533092916012,-0.0009027440100908279,0.0,0.0,0.0,0.0,0.0,0.0,0.0,0.0,0.0,0.3875428631422575,0.12090028216132123,9.79158790242935,0.0,0.0,0.0,0.0,0.0,0.0,0.0,0.0,0.0
1702623864292852452,237,1702623864292630434,base_link,-0.008062602029778928,-0.014899414299207442,-0.9789745788237009,0.2032775834149143,0.0,0.0,0.0,0.0,0.0,0.0,0.0,0.0,0.0,-0.0031998269259929657,-0.014910533092916012,-0.0009027440100908279,0.0,0.0,0.0,0.0,0.0,0.0,0.0,0.0,0.0,0.3875428631422575,0.12090028216132123,9.79158790242935,0.0,0.0,0.0,0.0,0.0,0.0,0.0,0.0,0.0
1702623864296303539,238,1702623864296057939,base_link,-0.008062602029778928,-0.014899414299207442,-0.9789745788237009,0.2032775834149143,0.0,0.0,0.0,0.0,0.0,0.0,0.0,0.0,0.0,0.005322257988154888,-0.008518729358911514,0.003358239307999611,0.0,0.0,0.0,0.0,0.0,0.0,0.0,0.0,0.0,0.3302331516844873,0.1326971851441394,9.793535496570346,0.0,0.0,0.0,0.0,0.0,0.0,0.0,0.0,0.0
1702623864299521568,239,1702623864299281835,base_link,-0.008096572436245732,-0.014919141662719942,-0.9789725426991943,0.2032845920573092,0.0,0.0,0.0,0.0,0.0,0.0,0.0,0.0,0.0,0.005322257988154888,-0.008518729358911514,0.003358239307999611,0.0,0.0,0.0,0.0,0.0,0.0,0.0,0.0,0.0,0.3302331516844873,0.1326971851441394,9.793535496570346,0.0,0.0,0.0,0.0,0.0,0.0,0.0,0.0,0.0
1702623864303184256,240,1702623864302749156,base_link,-0.008096572436245732,-0.014919141662719942,-0.9789725426991943,0.2032845920573092,0.0,0.0,0.0,0.0,0.0,0.0,0.0,0.0,0.0,0.007452764548361301,-0.020236296579241753,0.004423420876264572,0.0,0.0,0.0,0.0,0.0,0.0,0.0,0.0,0.0,0.2911213174359271,0.16540571071624038,9.794278397584828,0.0,0.0,0.0,0.0,0.0,0.0,0.0,0.0,0.0
1702623864306338428,241,1702623864305967330,base_link,-0.008160184625910283,-0.014947888489147803,-0.9789699133155942,0.2032925990769092,0.0,0.0,0.0,0.0,0.0,0.0,0.0,0.0,0.0,0.007452764548361301,-0.020236296579241753,0.004423420876264572,0.0,0.0,0.0,0.0,0.0,0.0,0.0,0.0,0.0,0.2911213174359271,0.16540571071624038,9.794278397584828,0.0,0.0,0.0,0.0,0.0,0.0,0.0,0.0,0.0
1702623864309671101,242,1702623864309403657,base_link,-0.008160184625910283,-0.014947888489147803,-0.9789699133155942,0.2032925990769092,0.0,0.0,0.0,0.0,0.0,0.0,0.0,0.0,0.0,-0.005330564454197884,-0.01810532994568348,-0.000902937725186348,0.0,0.0,0.0,0.0,0.0,0.0,0.0,0.0,0.0,0.31091977674073945,0.21897892785885598,9.792618501789258,0.0,0.0,0.0,0.0,0.0,0.0,0.0,0.0,0.0
1702623864312958210,243,1702623864312628746,base_link,-0.008226599330514589,-0.014944849884456879,-0.9789694815425019,0.20329222497132332,0.0,0.0,0.0,0.0,0.0,0.0,0.0,0.0,0.0,-0.005330564454197884,-0.01810532994568348,-0.000902937725186348,0.0,0.0,0.0,0.0,0.0,0.0,0.0,0.0,0.0,0.31091977674073945,0.21897892785885598,9.792618501789258,0.0,0.0,0.0,0.0,0.0,0.0,0.0,0.0,0.0
1702623864316295003,244,1702623864316056251,base_link,-0.008226599330514589,-0.014944849884456879,-0.9789694815425019,0.20329222497132332,0.0,0.0,0.0,0.0,0.0,0.0,0.0,0.0,0.0,-0.004265470430254936,-0.015974421054124832,0.0012275800108909607,0.0,0.0,0.0,0.0,0.0,0.0,0.0,0.0,0.0,0.30782102837069913,0.2589054887106531,9.791742141335643,0.0,0.0,0.0,0.0,0.0,0.0,0.0,0.0,0.0
1702623864319569520,245,1702623864319291353,base_link,-0.008291456003272704,-0.014936878497720005,-0.9789677127889299,0.20329869339201723,0.0,0.0,0.0,0.0,0.0,0.0,0.0,0.0,0.0,-0.004265470430254936,-0.015974421054124832,0.0012275800108909607,0.0,0.0,0.0,0.0,0.0,0.0,0.0,0.0,0.0,0.30782102837069913,0.2589054887106531,9.791742141335643,0.0,0.0,0.0,0.0,0.0,0.0,0.0,0.0,0.0
1702623864323048360,246,1702623864322702884,base_link,-0.008291456003272704,-0.014936878497720005,-0.9789677127889299,0.20329869339201723,0.0,0.0,0.0,0.0,0.0,0.0,0.0,0.0,0.0,-0.003200322389602661,-0.01277834177017212,0.007619176059961319,0.0,0.0,0.0,0.0,0.0,0.0,0.0,0.0,0.0,0.3299291051013231,0.2380261350279657,9.791551988558847,0.0,0.0,0.0,0.0,0.0,0.0,0.0,0.0,0.0
1702623864326225336,247,1702623864325955629,base_link,-0.008337533108134523,-0.014927947936149223,-0.9789646881904875,0.2033120291281059,0.0,0.0,0.0,0.0,0.0,0.0,0.0,0.0,0.0,-0.003200322389602661,-0.01277834177017212,0.007619176059961319,0.0,0.0,0.0,0.0,0.0,0.0,0.0,0.0,0.0,0.3299291051013231,0.2380261350279657,9.791551988558847,0.0,0.0,0.0,0.0,0.0,0.0,0.0,0.0,0.0
1702623864329650629,248,1702623864329390048,base_link,-0.008337533108134523,-0.014927947936149223,-0.9789646881904875,0.2033120291281059,0.0,0.0,0.0,0.0,0.0,0.0,0.0,0.0,0.0,-0.007461518049240112,-0.009582373313605785,0.005488663911819458,0.0,0.0,0.0,0.0,0.0,0.0,0.0,0.0,0.0,0.363192347218087,0.20984184010219886,9.791019238111257,0.0,0.0,0.0,0.0,0.0,0.0,0.0,0.0,0.0
1702623864332898287,249,1702623864332648515,base_link,-0.008377671161563693,-0.014903622408629157,-0.978961123856684,0.2033293255835657,0.0,0.0,0.0,0.0,0.0,0.0,0.0,0.0,0.0,-0.007461518049240112,-0.009582373313605785,0.005488663911819458,0.0,0.0,0.0,0.0,0.0,0.0,0.0,0.0,0.0,0.363192347218087,0.20984184010219886,9.791019238111257,0.0,0.0,0.0,0.0,0.0,0.0,0.0,0.0,0.0
1702623864336351293,250,1702623864336048841,base_link,-0.008377671161563693,-0.014903622408629157,-0.978961123856684,0.2033293255835657,0.0,0.0,0.0,0.0,0.0,0.0,0.0,0.0,0.0,-0.0032005924731492996,-0.010647471994161606,0.0012276209890842438,0.0,0.0,0.0,0.0,0.0,0.0,0.0,0.0,0.0,0.2643926349506767,0.17914654857975398,9.794794691504046,0.0,0.0,0.0,0.0,0.0,0.0,0.0,0.0,0.0
1702623864339632139,251,1702623864339294910,base_link,-0.008419918595655442,-0.014898890215203638,-0.9789583870475812,0.2033411037404788,0.0,0.0,0.0,0.0,0.0,0.0,0.0,0.0,0.0,-0.0032005924731492996,-0.010647471994161606,0.0012276209890842438,0.0,0.0,0.0,0.0,0.0,0.0,0.0,0.0,0.0,0.2643926349506767,0.17914654857975398,9.794794691504046,0.0,0.0,0.0,0.0,0.0,0.0,0.0,0.0,0.0
1702623864343093329,252,1702623864342736482,base_link,-0.008419918595655442,-0.014898890215203638,-0.9789583870475812,0.2033411037404788,0.0,0.0,0.0,0.0,0.0,0.0,0.0,0.0,0.0,-0.0010701604187488556,-0.013843012973666191,-0.0009029321372509003,0.0,0.0,0.0,0.0,0.0,0.0,0.0,0.0,0.0,0.3020403311707003,0.16833969271105909,9.793897762699194,0.0,0.0,0.0,0.0,0.0,0.0,0.0,0.0,0.0
1702623864346252559,253,1702623864345960140,base_link,-0.00846826873821245,-0.014895581666706344,-0.9789569685361189,0.2033461674730064,0.0,0.0,0.0,0.0,0.0,0.0,0.0,0.0,0.0,-0.0010701604187488556,-0.013843012973666191,-0.0009029321372509003,0.0,0.0,0.0,0.0,0.0,0.0,0.0,0.0,0.0,0.3020403311707003,0.16833969271105909,9.793897762699194,0.0,0.0,0.0,0.0,0.0,0.0,0.0,0.0,0.0
1702623864349815838,254,1702623864349409341,base_link,-0.00846826873821245,-0.014895581666706344,-0.9789569685361189,0.2033461674730064,0.0,0.0,0.0,0.0,0.0,0.0,0.0,0.0,0.0,-0.00426609069108963,-0.012777505442500114,0.0001623295247554779,0.0,0.0,0.0,0.0,0.0,0.0,0.0,0.0,0.0,0.28248084996541434,0.18575067051624536,9.794166695426702,0.0,0.0,0.0,0.0,0.0,0.0,0.0,0.0,0.0
1702623864353030463,255,1702623864352622985,base_link,-0.008514897939282009,-0.014879233805622123,-0.9789553862277882,0.20335303462216464,0.0,0.0,0.0,0.0,0.0,0.0,0.0,0.0,0.0,-0.00426609069108963,-0.012777505442500114,0.0001623295247554779,0.0,0.0,0.0,0.0,0.0,0.0,0.0,0.0,0.0,0.28248084996541434,0.18575067051624536,9.794166695426702,0.0,0.0,0.0,0.0,0.0,0.0,0.0,0.0,0.0
1702623864356457735,256,1702623864356058597,base_link,-0.008514897939282009,-0.014879233805622123,-0.9789553862277882,0.20335303462216464,0.0,0.0,0.0,0.0,0.0,0.0,0.0,0.0,0.0,-0.0074620321393013,-0.007451036013662815,0.002292882651090622,0.0,0.0,0.0,0.0,0.0,0.0,0.0,0.0,0.0,0.29167507045416774,0.2682010524532774,9.791986205501852,0.0,0.0,0.0,0.0,0.0,0.0,0.0,0.0,0.0
1702623864359633350,257,1702623864359267473,base_link,-0.008551819090398767,-0.014860692092759559,-0.9789535353434764,0.20336175122003178,0.0,0.0,0.0,0.0,0.0,0.0,0.0,0.0,0.0,-0.0074620321393013,-0.007451036013662815,0.002292882651090622,0.0,0.0,0.0,0.0,0.0,0.0,0.0,0.0,0.0,0.29167507045416774,0.2682010524532774,9.791986205501852,0.0,0.0,0.0,0.0,0.0,0.0,0.0,0.0,0.0
1702623864362999878,258,1702623864362702369,base_link,-0.008551819090398767,-0.014860692092759559,-0.9789535353434764,0.20336175122003178,0.0,0.0,0.0,0.0,0.0,0.0,0.0,0.0,0.0,-0.0074621811509132385,-0.00745090376585722,0.0022929031401872635,0.0,0.0,0.0,0.0,0.0,0.0,0.0,0.0,0.0,0.2933158421860108,0.21039237019186882,9.793349828699462,0.0,0.0,0.0,0.0,0.0,0.0,0.0,0.0,0.0
1702623864366658578,259,1702623864366128206,base_link,-0.00859073558433844,-0.014843432723311619,-0.9789523440009068,0.2033671063427873,0.0,0.0,0.0,0.0,0.0,0.0,0.0,0.0,0.0,-0.0074621811509132385,-0.00745090376585722,0.0022929031401872635,0.0,0.0,0.0,0.0,0.0,0.0,0.0,0.0,0.0,0.2933158421860108,0.21039237019186882,9.793349828699462,0.0,0.0,0.0,0.0,0.0,0.0,0.0,0.0,0.0
1702623864370170369,260,1702623864369613170,base_link,-0.00859073558433844,-0.014843432723311619,-0.9789523440009068,0.2033671063427873,0.0,0.0,0.0,0.0,0.0,0.0,0.0,0.0,0.0,-0.0085276048630476,-0.006385492160916328,0.002292921766638756,0.0,0.0,0.0,0.0,0.0,0.0,0.0,0.0,0.0,0.256048875244551,0.22269829931902627,9.794122954147882,0.0,0.0,0.0,0.0,0.0,0.0,0.0,0.0,0.0
1702623864373294443,261,1702623864372776031,base_link,-0.008629510496531078,-0.01481156687286985,-0.9789499974546144,0.20337908328776388,0.0,0.0,0.0,0.0,0.0,0.0,0.0,0.0,0.0,-0.0085276048630476,-0.006385492160916328,0.002292921766638756,0.0,0.0,0.0,0.0,0.0,0.0,0.0,0.0,0.0,0.256048875244551,0.22269829931902627,9.794122954147882,0.0,0.0,0.0,0.0,0.0,0.0,0.0,0.0,0.0
1702623864376695995,262,1702623864376099348,base_link,-0.008629510496531078,-0.01481156687286985,-0.9789499974546144,0.20337908328776388,0.0,0.0,0.0,0.0,0.0,0.0,0.0,0.0,0.0,-0.011723462492227554,0.053268685936927795,0.002293005585670471,0.0,0.0,0.0,0.0,0.0,0.0,0.0,0.0,0.0,0.704184956139394,0.14692478216378554,9.773563150455063,0.0,0.0,0.0,0.0,0.0,0.0,0.0,0.0,0.0
1702623864379707312,263,1702623864379301786,base_link,-0.008580574650966781,-0.014739777413026758,-0.97894912357609,0.20339057537181682,0.0,0.0,0.0,0.0,0.0,0.0,0.0,0.0,0.0,-0.011723462492227554,0.053268685936927795,0.002293005585670471,0.0,0.0,0.0,0.0,0.0,0.0,0.0,0.0,0.0,0.704184956139394,0.14692478216378554,9.773563150455063,0.0,0.0,0.0,0.0,0.0,0.0,0.0,0.0,0.0
1702623864383104654,264,1702623864382717132,base_link,-0.008580574650966781,-0.014739777413026758,-0.97894912357609,0.20339057537181682,0.0,0.0,0.0,0.0,0.0,0.0,0.0,0.0,0.0,0.018103862181305885,-0.010646957904100418,0.005488784983754158,0.0,0.0,0.0,0.0,0.0,0.0,0.0,0.0,0.0,0.3562176413991635,0.027629230631952068,9.79348485563595,0.0,0.0,0.0,0.0,0.0,0.0,0.0,0.0,0.0
1702623864386236776,265,1702623864385961294,base_link,-0.008607162705594494,-0.014747788845437277,-0.9789462423544643,0.2034027385617126,0.0,0.0,0.0,0.0,0.0,0.0,0.0,0.0,0.0,0.018103862181305885,-0.010646957904100418,0.005488784983754158,0.0,0.0,0.0,0.0,0.0,0.0,0.0,0.0,0.0,0.3562176413991635,0.027629230631952068,9.79348485563595,0.0,0.0,0.0,0.0,0.0,0.0,0.0,0.0,0.0
1702623864389988460,266,1702623864389400482,base_link,-0.008607162705594494,-0.014747788845437277,-0.9789462423544643,0.2034027385617126,0.0,0.0,0.0,0.0,0.0,0.0,0.0,0.0,0.0,-0.017050154507160187,-0.044734880328178406,0.00335831381380558,0.0,0.0,0.0,0.0,0.0,0.0,0.0,0.0,0.0,0.2237327283290457,0.14115749302228192,9.796428850782213,0.0,0.0,0.0,0.0,0.0,0.0,0.0,0.0,0.0
1702623864389995577,267,1702623864389654874,base_link,-0.008697340851406301,-0.014688059301176545,-0.9789450763447738,0.20340883627906794,0.0,0.0,0.0,0.0,0.0,0.0,0.0,0.0,0.0,-0.017050154507160187,-0.044734880328178406,0.00335831381380558,0.0,0.0,0.0,0.0,0.0,0.0,0.0,0.0,0.0,0.2237327283290457,0.14115749302228192,9.796428850782213,0.0,0.0,0.0,0.0,0.0,0.0,0.0,0.0,0.0
1702623864396786410,268,1702623864396036148,base_link,-0.008697340851406301,-0.014688059301176545,-0.9789450763447738,0.20340883627906794,0.0,0.0,0.0,0.0,0.0,0.0,0.0,0.0,0.0,-0.0213115606456995,-0.027690386399626732,0.00655424315482378,0.0,0.0,0.0,0.0,0.0,0.0,0.0,0.0,0.0,0.3702441734386833,0.10877096994688647,9.792399508196729,0.0,0.0,0.0,0.0,0.0,0.0,0.0,0.0,0.0
1702623864396795440,269,1702623864396282196,base_link,-0.008760234292058976,-0.014620830628654926,-0.9789424502768531,0.20342361871923123,0.0,0.0,0.0,0.0,0.0,0.0,0.0,0.0,0.0,-0.0213115606456995,-0.027690386399626732,0.00655424315482378,0.0,0.0,0.0,0.0,0.0,0.0,0.0,0.0,0.0,0.3702441734386833,0.10877096994688647,9.792399508196729,0.0,0.0,0.0,0.0,0.0,0.0,0.0,0.0,0.0
1702623864399827847,270,1702623864399411201,base_link,-0.008760234292058976,-0.014620830628654926,-0.9789424502768531,0.20342361871923123,0.0,0.0,0.0,0.0,0.0,0.0,0.0,0.0,0.0,-0.004267474636435509,0.021311428397893906,0.002293270081281662,0.0,0.0,0.0,0.0,0.0,0.0,0.0,0.0,0.0,0.4314623761600999,0.11354272812925616,9.789839031712791,0.0,0.0,0.0,0.0,0.0,0.0,0.0,0.0,0.0
1702623864402991238,271,1702623864402608633,base_link,-0.008674301161232696,-0.014594586838664134,-0.9789413957610557,0.20343426014260577,0.0,0.0,0.0,0.0,0.0,0.0,0.0,0.0,0.0,-0.004267474636435509,0.021311428397893906,0.002293270081281662,0.0,0.0,0.0,0.0,0.0,0.0,0.0,0.0,0.0,0.4314623761600999,0.11354272812925616,9.789839031712791,0.0,0.0,0.0,0.0,0.0,0.0,0.0,0.0,0.0
1702623864406140687,272,1702623864405939102,base_link,-0.008674301161232696,-0.014594586838664134,-0.9789413957610557,0.20343426014260577,0.0,0.0,0.0,0.0,0.0,0.0,0.0,0.0,0.0,0.021299118176102638,0.04048518091440201,0.0012279320508241653,0.0,0.0,0.0,0.0,0.0,0.0,0.0,0.0,0.0,0.39597093406618,0.14216116862585151,9.790965081211846,0.0,0.0,0.0,0.0,0.0,0.0,0.0,0.0,0.0
1702623864409476664,273,1702623864409249305,base_link,-0.008535182497739232,-0.014637738148084162,-0.9789406767917321,0.2034405038437132,0.0,0.0,0.0,0.0,0.0,0.0,0.0,0.0,0.0,0.021299118176102638,0.04048518091440201,0.0012279320508241653,0.0,0.0,0.0,0.0,0.0,0.0,0.0,0.0,0.0,0.39597093406618,0.14216116862585151,9.790965081211846,0.0,0.0,0.0,0.0,0.0,0.0,0.0,0.0,0.0
1702623864413204203,274,1702623864412704944,base_link,-0.008535182497739232,-0.014637738148084162,-0.9789406767917321,0.2034405038437132,0.0,0.0,0.0,0.0,0.0,0.0,0.0,0.0,0.0,0.009581427089869976,0.0010698512196540833,0.00016254186630249023,0.0,0.0,0.0,0.0,0.0,0.0,0.0,0.0,0.0,0.2158500486703699,0.2298494040004204,9.794926135911881,0.0,0.0,0.0,0.0,0.0,0.0,0.0,0.0,0.0
1702623864416223576,275,1702623864415955543,base_link,-0.008537741862279503,-0.014649188577375115,-0.9789392621359173,0.2034463793895166,0.0,0.0,0.0,0.0,0.0,0.0,0.0,0.0,0.0,0.009581427089869976,0.0010698512196540833,0.00016254186630249023,0.0,0.0,0.0,0.0,0.0,0.0,0.0,0.0,0.0,0.2158500486703699,0.2298494040004204,9.794926135911881,0.0,0.0,0.0,0.0,0.0,0.0,0.0,0.0,0.0
1702623864419836715,276,1702623864419410467,base_link,-0.008537741862279503,-0.014649188577375115,-0.9789392621359173,0.2034463793895166,0.0,0.0,0.0,0.0,0.0,0.0,0.0,0.0,0.0,-0.015985069796442986,0.0053308382630348206,-0.0009026862680912018,0.0,0.0,0.0,0.0,0.0,0.0,0.0,0.0,0.0,0.27105133303783874,0.3012950753353844,9.791616437158734,0.0,0.0,0.0,0.0,0.0,0.0,0.0,0.0,0.0
1702623864422995845,277,1702623864422637939,base_link,-0.008555956639978643,-0.01462449329633685,-0.9789380051418881,0.2034534391221273,0.0,0.0,0.0,0.0,0.0,0.0,0.0,0.0,0.0,-0.015985069796442986,0.0053308382630348206,-0.0009026862680912018,0.0,0.0,0.0,0.0,0.0,0.0,0.0,0.0,0.0,0.27105133303783874,0.3012950753353844,9.791616437158734,0.0,0.0,0.0,0.0,0.0,0.0,0.0,0.0,0.0
1702623864426529341,278,1702623864426057100,base_link,-0.008555956639978643,-0.01462449329633685,-0.9789380051418881,0.2034534391221273,0.0,0.0,0.0,0.0,0.0,0.0,0.0,0.0,0.0,0.002124355174601078,-0.004256444051861763,0.0012278258800506592,0.0,0.0,0.0,0.0,0.0,0.0,0.0,0.0,0.0,0.2921115530573629,0.33033521972911645,9.790074028482978,0.0,0.0,0.0,0.0,0.0,0.0,0.0,0.0,0.0
1702623864429567539,279,1702623864429281234,base_link,-0.00855894894744666,-0.014647673912217156,-0.9789371979032853,0.20345552979248496,0.0,0.0,0.0,0.0,0.0,0.0,0.0,0.0,0.0,0.002124355174601078,-0.004256444051861763,0.0012278258800506592,0.0,0.0,0.0,0.0,0.0,0.0,0.0,0.0,0.0,0.2921115530573629,0.33033521972911645,9.790074028482978,0.0,0.0,0.0,0.0,0.0,0.0,0.0,0.0,0.0
1702623864433193699,280,1702623864432762384,base_link,-0.00855894894744666,-0.014647673912217156,-0.9789371979032853,0.20345552979248496,0.0,0.0,0.0,0.0,0.0,0.0,0.0,0.0,0.0,-0.002136731520295143,0.004265572875738144,0.0012277867645025253,0.0,0.0,0.0,0.0,0.0,0.0,0.0,0.0,0.0,0.23766166917191758,0.28753980779165844,9.792897313356326,0.0,0.0,0.0,0.0,0.0,0.0,0.0,0.0,0.0
1702623864436294212,281,1702623864435976505,base_link,-0.008548952077880277,-0.014639347794724686,-0.9789361712478581,0.20346148907618647,0.0,0.0,0.0,0.0,0.0,0.0,0.0,0.0,0.0,-0.002136731520295143,0.004265572875738144,0.0012277867645025253,0.0,0.0,0.0,0.0,0.0,0.0,0.0,0.0,0.0,0.23766166917191758,0.28753980779165844,9.792897313356326,0.0,0.0,0.0,0.0,0.0,0.0,0.0,0.0,0.0
1702623864439660855,282,1702623864439398765,base_link,-0.008548952077880277,-0.014639347794724686,-0.9789361712478581,0.20346148907618647,0.0,0.0,0.0,0.0,0.0,0.0,0.0,0.0,0.0,-0.002136796712875366,0.00533064641058445,0.002293061465024948,0.0,0.0,0.0,0.0,0.0,0.0,0.0,0.0,0.0,0.30505812643851726,0.2767710659197757,9.791339914259105,0.0,0.0,0.0,0.0,0.0,0.0,0.0,0.0,0.0
1702623864442909814,283,1702623864442625522,base_link,-0.008551129320758265,-0.014634224079734255,-0.9789339332778262,0.2034725336504373,0.0,0.0,0.0,0.0,0.0,0.0,0.0,0.0,0.0,-0.002136796712875366,0.00533064641058445,0.002293061465024948,0.0,0.0,0.0,0.0,0.0,0.0,0.0,0.0,0.0,0.30505812643851726,0.2767710659197757,9.791339914259105,0.0,0.0,0.0,0.0,0.0,0.0,0.0,0.0,0.0
1702623864446428775,284,1702623864446047782,base_link,-0.008551129320758265,-0.014634224079734255,-0.9789339332778262,0.2034725336504373,0.0,0.0,0.0,0.0,0.0,0.0,0.0,0.0,0.0,0.0031894780695438385,-0.0010609403252601624,-0.0019680336117744446,0.0,0.0,0.0,0.0,0.0,0.0,0.0,0.0,0.0,0.267948143093442,0.1901632090732062,9.794490377070558,0.0,0.0,0.0,0.0,0.0,0.0,0.0,0.0,0.0
1702623864450117543,285,1702623864449465513,base_link,-0.008565231207849345,-0.014637422921161436,-0.9789340296306914,0.20347124685222612,0.0,0.0,0.0,0.0,0.0,0.0,0.0,0.0,0.0,0.0031894780695438385,-0.0010609403252601624,-0.0019680336117744446,0.0,0.0,0.0,0.0,0.0,0.0,0.0,0.0,0.0,0.267948143093442,0.1901632090732062,9.794490377070558,0.0,0.0,0.0,0.0,0.0,0.0,0.0,0.0,0.0
1702623864453183942,286,1702623864452764511,base_link,-0.008565231207849345,-0.014637422921161436,-0.9789340296306914,0.20347124685222612,0.0,0.0,0.0,0.0,0.0,0.0,0.0,0.0,0.0,-0.002136915922164917,-0.0010609328746795654,0.0033582746982574463,0.0,0.0,0.0,0.0,0.0,0.0,0.0,0.0,0.0,0.3322374701404409,0.21112058125509175,9.792091010790555,0.0,0.0,0.0,0.0,0.0,0.0,0.0,0.0,0.0
1702623864456311970,287,1702623864455975770,base_link,-0.008581679595227591,-0.014625744162564078,-0.9789332450662028,0.20347516823231712,0.0,0.0,0.0,0.0,0.0,0.0,0.0,0.0,0.0,-0.002136915922164917,-0.0010609328746795654,0.0033582746982574463,0.0,0.0,0.0,0.0,0.0,0.0,0.0,0.0,0.0,0.3322374701404409,0.21112058125509175,9.792091010790555,0.0,0.0,0.0,0.0,0.0,0.0,0.0,0.0,0.0
1702623864459791046,288,1702623864459415435,base_link,-0.008581679595227591,-0.014625744162564078,-0.9789332450662028,0.20347516823231712,0.0,0.0,0.0,0.0,0.0,0.0,0.0,0.0,0.0,-0.003202281892299652,4.319474101066589e-06,0.004423540085554123,0.0,0.0,0.0,0.0,0.0,0.0,0.0,0.0,0.0,0.35447556594727697,0.1782465961612783,9.791964829598976,0.0,0.0,0.0,0.0,0.0,0.0,0.0,0.0,0.0
1702623864463135827,289,1702623864462692975,base_link,-0.008597542405107543,-0.01461440574087516,-0.9789306450242791,0.20348782185129013,0.0,0.0,0.0,0.0,0.0,0.0,0.0,0.0,0.0,-0.003202281892299652,4.319474101066589e-06,0.004423540085554123,0.0,0.0,0.0,0.0,0.0,0.0,0.0,0.0,0.0,0.35447556594727697,0.1782465961612783,9.791964829598976,0.0,0.0,0.0,0.0,0.0,0.0,0.0,0.0,0.0
1702623864466598510,290,1702623864466123819,base_link,-0.008597542405107543,-0.01461440574087516,-0.9789306450242791,0.20348782185129013,0.0,0.0,0.0,0.0,0.0,0.0,0.0,0.0,0.0,-0.0021371114999055862,-0.005321933887898922,0.00016247108578681946,0.0,0.0,0.0,0.0,0.0,0.0,0.0,0.0,0.0,0.2869914320186073,0.1455170594716555,9.794715958278253,0.0,0.0,0.0,0.0,0.0,0.0,0.0,0.0,0.0
1702623864469699089,291,1702623864469344854,base_link,-0.00862476654477116,-0.014605281329394485,-0.978930841374262,0.20348638029513616,0.0,0.0,0.0,0.0,0.0,0.0,0.0,0.0,0.0,-0.0021371114999055862,-0.005321933887898922,0.00016247108578681946,0.0,0.0,0.0,0.0,0.0,0.0,0.0,0.0,0.0,0.2869914320186073,0.1455170594716555,9.794715958278253,0.0,0.0,0.0,0.0,0.0,0.0,0.0,0.0,0.0
1702623864473173617,292,1702623864472775220,base_link,-0.00862476654477116,-0.014605281329394485,-0.978930841374262,0.20348638029513616,0.0,0.0,0.0,0.0,0.0,0.0,0.0,0.0,0.0,-0.0010719504207372665,-0.00532181654125452,0.0033582448959350586,0.0,0.0,0.0,0.0,0.0,0.0,0.0,0.0,0.0,0.3397243552132392,0.1473266612567927,9.793001695974421,0.0,0.0,0.0,0.0,0.0,0.0,0.0,0.0,0.0
1702623864476430832,293,1702623864475980520,base_link,-0.008650858644333695,-0.014600667915404753,-0.9789291834310289,0.20349357967316567,0.0,0.0,0.0,0.0,0.0,0.0,0.0,0.0,0.0,-0.0010719504207372665,-0.00532181654125452,0.0033582448959350586,0.0,0.0,0.0,0.0,0.0,0.0,0.0,0.0,0.0,0.3397243552132392,0.1473266612567927,9.793001695974421,0.0,0.0,0.0,0.0,0.0,0.0,0.0,0.0,0.0
1702623864479824841,294,1702623864479417324,base_link,-0.008650858644333695,-0.014600667915404753,-0.9789291834310289,0.20349357967316567,0.0,0.0,0.0,0.0,0.0,0.0,0.0,0.0,0.0,-0.004267845302820206,-0.0010607093572616577,0.0012277066707611084,0.0,0.0,0.0,0.0,0.0,0.0,0.0,0.0,0.0,0.3128365900663546,0.1538099254466207,9.793797821823247,0.0,0.0,0.0,0.0,0.0,0.0,0.0,0.0,0.0
1702623864483048216,295,1702623864482640027,base_link,-0.008671823403840212,-0.01457860194586916,-0.9789277685836837,0.20350107552523242,0.0,0.0,0.0,0.0,0.0,0.0,0.0,0.0,0.0,-0.004267845302820206,-0.0010607093572616577,0.0012277066707611084,0.0,0.0,0.0,0.0,0.0,0.0,0.0,0.0,0.0,0.3128365900663546,0.1538099254466207,9.793797821823247,0.0,0.0,0.0,0.0,0.0,0.0,0.0,0.0,0.0
1702623864486415856,296,1702623864486089468,base_link,-0.008671823403840212,-0.01457860194586916,-0.9789277685836837,0.20350107552523242,0.0,0.0,0.0,0.0,0.0,0.0,0.0,0.0,0.0,-0.0032027140259742737,-0.0010606758296489716,-0.0009028129279613495,0.0,0.0,0.0,0.0,0.0,0.0,0.0,0.0,0.0,0.3209573077450873,0.14495154783394648,9.79367017289155,0.0,0.0,0.0,0.0,0.0,0.0,0.0,0.0,0.0
1702623864489964540,297,1702623864489488840,base_link,-0.008672110547520605,-0.014566257493052133,-0.9789292770039014,0.203494691001796,0.0,0.0,0.0,0.0,0.0,0.0,0.0,0.0,0.0,-0.0032027140259742737,-0.0010606758296489716,-0.0009028129279613495,0.0,0.0,0.0,0.0,0.0,0.0,0.0,0.0,0.0,0.3209573077450873,0.14495154783394648,9.79367017289155,0.0,0.0,0.0,0.0,0.0,0.0,0.0,0.0,0.0
1702623864493396385,298,1702623864492873668,base_link,-0.008672110547520605,-0.014566257493052133,-0.9789292770039014,0.203494691001796,0.0,0.0,0.0,0.0,0.0,0.0,0.0,0.0,0.0,-0.0010722633451223373,0.0063960254192352295,0.00016242824494838715,0.0,0.0,0.0,0.0,0.0,0.0,0.0,0.0,0.0,0.397282508675311,0.16633463803648196,9.790531109009866,0.0,0.0,0.0,0.0,0.0,0.0,0.0,0.0,0.0
1702623864496304947,299,1702623864495994091,base_link,-0.008646090771263158,-0.014558479545978057,-0.9789286530756792,0.20349935620321055,0.0,0.0,0.0,0.0,0.0,0.0,0.0,0.0,0.0,-0.0010722633451223373,0.0063960254192352295,0.00016242824494838715,0.0,0.0,0.0,0.0,0.0,0.0,0.0,0.0,0.0,0.397282508675311,0.16633463803648196,9.790531109009866,0.0,0.0,0.0,0.0,0.0,0.0,0.0,0.0,0.0
1702623864499853695,300,1702623864499480724,base_link,-0.008646090771263158,-0.014558479545978057,-0.9789286530756792,0.20349935620321055,0.0,0.0,0.0,0.0,0.0,0.0,0.0,0.0,0.0,0.00425410270690918,0.017048243433237076,0.00016239285469055176,0.0,0.0,0.0,0.0,0.0,0.0,0.0,0.0,0.0,0.3323246256313935,0.1742106806078539,9.792814252397578,0.0,0.0,0.0,0.0,0.0,0.0,0.0,0.0,0.0
1702623864502958101,301,1702623864502671718,base_link,-0.008606413306686479,-0.014555479296166851,-0.9789284149252613,0.2035023983258398,0.0,0.0,0.0,0.0,0.0,0.0,0.0,0.0,0.0,0.00425410270690918,0.017048243433237076,0.00016239285469055176,0.0,0.0,0.0,0.0,0.0,0.0,0.0,0.0,0.0,0.3323246256313935,0.1742106806078539,9.792814252397578,0.0,0.0,0.0,0.0,0.0,0.0,0.0,0.0,0.0
1702623864506379163,302,1702623864506076097,base_link,-0.008606413306686479,-0.014555479296166851,-0.9789284149252613,0.2035023983258398,0.0,0.0,0.0,0.0,0.0,0.0,0.0,0.0,0.0,-0.002137480303645134,0.01811310462653637,0.001227647066116333,0.0,0.0,0.0,0.0,0.0,0.0,0.0,0.0,0.0,0.3604012609272826,0.22376987398858533,9.790813958737912,0.0,0.0,0.0,0.0,0.0,0.0,0.0,0.0,0.0
1702623864509632851,303,1702623864509314298,base_link,-0.008567777802849383,-0.014533026593648276,-0.978928468429475,0.20350537589919274,0.0,0.0,0.0,0.0,0.0,0.0,0.0,0.0,0.0,-0.002137480303645134,0.01811310462653637,0.001227647066116333,0.0,0.0,0.0,0.0,0.0,0.0,0.0,0.0,0.0,0.3604012609272826,0.22376987398858533,9.790813958737912,0.0,0.0,0.0,0.0,0.0,0.0,0.0,0.0,0.0
1702623864513032713,304,1702623864512741565,base_link,-0.008567777802849383,-0.014533026593648276,-0.978928468429475,0.20350537589919274,0.0,0.0,0.0,0.0,0.0,0.0,0.0,0.0,0.0,-0.0010722577571868896,0.018112702295184135,0.0001623891294002533,0.0,0.0,0.0,0.0,0.0,0.0,0.0,0.0,0.0,0.37856108854604675,0.20815715210830185,9.790473027503063,0.0,0.0,0.0,0.0,0.0,0.0,0.0,0.0,0.0
1702623864516376363,305,1702623864516011953,base_link,-0.008523404751200453,-0.014522395313632638,-0.9789290830163372,0.20350504178175804,0.0,0.0,0.0,0.0,0.0,0.0,0.0,0.0,0.0,-0.0010722577571868896,0.018112702295184135,0.0001623891294002533,0.0,0.0,0.0,0.0,0.0,0.0,0.0,0.0,0.0,0.37856108854604675,0.20815715210830185,9.790473027503063,0.0,0.0,0.0,0.0,0.0,0.0,0.0,0.0,0.0
1702623864519928690,306,1702623864519510746,base_link,-0.008523404751200453,-0.014522395313632638,-0.9789290830163372,0.20350504178175804,0.0,0.0,0.0,0.0,0.0,0.0,0.0,0.0,0.0,0.0042541008442640305,0.014916505664587021,0.0033581480383872986,0.0,0.0,0.0,0.0,0.0,0.0,0.0,0.0,0.0,0.35044860864963656,0.22078091010982417,9.791243106083446,0.0,0.0,0.0,0.0,0.0,0.0,0.0,0.0,0.0
1702623864523035702,307,1702623864522665262,base_link,-0.008476531795625531,-0.014543530256458546,-0.9789271492507767,0.20351479208191403,0.0,0.0,0.0,0.0,0.0,0.0,0.0,0.0,0.0,0.0042541008442640305,0.014916505664587021,0.0033581480383872986,0.0,0.0,0.0,0.0,0.0,0.0,0.0,0.0,0.0,0.35044860864963656,0.22078091010982417,9.791243106083446,0.0,0.0,0.0,0.0,0.0,0.0,0.0,0.0,0.0
1702623864526563445,308,1702623864526159524,base_link,-0.008476531795625531,-0.014543530256458546,-0.9789271492507767,0.20351479208191403,0.0,0.0,0.0,0.0,0.0,0.0,0.0,0.0,0.0,0.023429056629538536,0.009589837864041328,0.00016221590340137482,0.0,0.0,0.0,0.0,0.0,0.0,0.0,0.0,0.0,0.4372180908314125,0.5051815989831847,9.777199593600335,0.0,0.0,0.0,0.0,0.0,0.0,0.0,0.0,0.0
1702623864529557952,309,1702623864529297351,base_link,-0.008414130037578264,-0.014556400095522129,-0.9789261098304447,0.203521461089984,0.0,0.0,0.0,0.0,0.0,0.0,0.0,0.0,0.0,0.023429056629538536,0.009589837864041328,0.00016221590340137482,0.0,0.0,0.0,0.0,0.0,0.0,0.0,0.0,0.0,0.4372180908314125,0.5051815989831847,9.777199593600335,0.0,0.0,0.0,0.0,0.0,0.0,0.0,0.0,0.0
1702623864533144590,310,1702623864532768249,base_link,-0.008414130037578264,-0.014556400095522129,-0.9789261098304447,0.203521461089984,0.0,0.0,0.0,0.0,0.0,0.0,0.0,0.0,0.0,-0.01811639592051506,-0.0053242044523358345,0.00122755765914917,0.0,0.0,0.0,0.0,0.0,0.0,0.0,0.0,0.0,0.11677369747172961,-0.07175606947316404,9.799041533235409,0.0,0.0,0.0,0.0,0.0,0.0,0.0,0.0,0.0
1702623864536393556,311,1702623864536068439,base_link,-0.008342016700960981,-0.014495672643315166,-0.9789244364548082,0.20353681225668965,0.0,0.0,0.0,0.0,0.0,0.0,0.0,0.0,0.0,-0.01811639592051506,-0.0053242044523358345,0.00122755765914917,0.0,0.0,0.0,0.0,0.0,0.0,0.0,0.0,0.0,0.11677369747172961,-0.07175606947316404,9.799041533235409,0.0,0.0,0.0,0.0,0.0,0.0,0.0,0.0,0.0
1702623864539727456,312,1702623864539417743,base_link,-0.008342016700960981,-0.014495672643315166,-0.9789244364548082,0.20353681225668965,0.0,0.0,0.0,0.0,0.0,0.0,0.0,0.0,0.0,-0.005333203822374344,-0.019173236563801765,0.006553933955729008,0.0,0.0,0.0,0.0,0.0,0.0,0.0,0.0,0.0,0.11267993150360804,0.2433875414764516,9.796329197086552,0.0,0.0,0.0,0.0,0.0,0.0,0.0,0.0,0.0
1702623864542899459,313,1702623864542635679,base_link,-0.008384893923171696,-0.0144798756629472,-0.9789215552899778,0.20355003154834847,0.0,0.0,0.0,0.0,0.0,0.0,0.0,0.0,0.0,-0.005333203822374344,-0.019173236563801765,0.006553933955729008,0.0,0.0,0.0,0.0,0.0,0.0,0.0,0.0,0.0,0.11267993150360804,0.2433875414764516,9.796329197086552,0.0,0.0,0.0,0.0,0.0,0.0,0.0,0.0,0.0
1702623864546340962,314,1702623864546061515,base_link,-0.008384893923171696,-0.0144798756629472,-0.9789215552899778,0.20355003154834847,0.0,0.0,0.0,0.0,0.0,0.0,0.0,0.0,0.0,-0.01492074690759182,1.4957040548324585e-06,0.00761927105486393,0.0,0.0,0.0,0.0,0.0,0.0,0.0,0.0,0.0,0.22029208235230088,0.16781073145871467,9.79608651232012,0.0,0.0,0.0,0.0,0.0,0.0,0.0,0.0,0.0
1702623864549876974,315,1702623864549452066,base_link,-0.008415399805207245,-0.014408327698989688,-0.978915647006299,0.2035822614700896,0.0,0.0,0.0,0.0,0.0,0.0,0.0,0.0,0.0,-0.01492074690759182,1.4957040548324585e-06,0.00761927105486393,0.0,0.0,0.0,0.0,0.0,0.0,0.0,0.0,0.0,0.22029208235230088,0.16781073145871467,9.79608651232012,0.0,0.0,0.0,0.0,0.0,0.0,0.0,0.0,0.0
1702623864553599920,316,1702623864552908897,base_link,-0.008415399805207245,-0.014408327698989688,-0.978915647006299,0.2035822614700896,0.0,0.0,0.0,0.0,0.0,0.0,0.0,0.0,0.0,-0.013855654746294022,-0.008520649746060371,0.011880473233759403,0.0,0.0,0.0,0.0,0.0,0.0,0.0,0.0,0.0,0.23563423521214566,0.18586234151742695,9.795403600526202,0.0,0.0,0.0,0.0,0.0,0.0,0.0,0.0,0.0
1702623864553628486,317,1702623864553255319,base_link,-0.008448468603690439,-0.014370672515078299,-0.9789084858417391,0.20361798421738347,0.0,0.0,0.0,0.0,0.0,0.0,0.0,0.0,0.0,-0.013855654746294022,-0.008520649746060371,0.011880473233759403,0.0,0.0,0.0,0.0,0.0,0.0,0.0,0.0,0.0,0.23563423521214566,0.18586234151742695,9.795403600526202,0.0,0.0,0.0,0.0,0.0,0.0,0.0,0.0,0.0
1702623864560177396,318,1702623864559485912,base_link,-0.008448468603690439,-0.014370672515078299,-0.9789084858417391,0.20361798421738347,0.0,0.0,0.0,0.0,0.0,0.0,0.0,0.0,0.0,-0.0010724924504756927,-0.0042596738785505295,0.009749977849423885,0.0,0.0,0.0,0.0,0.0,0.0,0.0,0.0,0.0,0.3744710605732203,0.24737844566874612,9.789717837068222,0.0,0.0,0.0,0.0,0.0,0.0,0.0,0.0,0.0
1702623864560186939,319,1702623864559826612,base_link,-0.008476334895101311,-0.014357251339393006,-0.9789037610511581,0.2036404863494014,0.0,0.0,0.0,0.0,0.0,0.0,0.0,0.0,0.0,-0.0010724924504756927,-0.0042596738785505295,0.009749977849423885,0.0,0.0,0.0,0.0,0.0,0.0,0.0,0.0,0.0,0.3744710605732203,0.24737844566874612,9.789717837068222,0.0,0.0,0.0,0.0,0.0,0.0,0.0,0.0,0.0
1702623864567003764,320,1702623864566207408,base_link,-0.008476334895101311,-0.014357251339393006,-0.9789037610511581,0.2036404863494014,0.0,0.0,0.0,0.0,0.0,0.0,0.0,0.0,0.0,-0.013855833560228348,-0.014912153594195843,0.006554239429533482,0.0,0.0,0.0,0.0,0.0,0.0,0.0,0.0,0.0,0.27413111532016127,0.21126979726934833,9.7938867261356,0.0,0.0,0.0,0.0,0.0,0.0,0.0,0.0,0.0
1702623864567163737,321,1702623864566559076,base_link,-0.00852495299850446,-0.01431377953099387,-0.9789011693080393,0.20365397521105455,0.0,0.0,0.0,0.0,0.0,0.0,0.0,0.0,0.0,-0.013855833560228348,-0.014912153594195843,0.006554239429533482,0.0,0.0,0.0,0.0,0.0,0.0,0.0,0.0,0.0,0.27413111532016127,0.21126979726934833,9.7938867261356,0.0,0.0,0.0,0.0,0.0,0.0,0.0,0.0,0.0
1702623864569995242,322,1702623864569505214,base_link,-0.00852495299850446,-0.01431377953099387,-0.9789011693080393,0.20365397521105455,0.0,0.0,0.0,0.0,0.0,0.0,0.0,0.0,0.0,-0.011725539341568947,-0.015977220609784126,0.0022932440042495728,0.0,0.0,0.0,0.0,0.0,0.0,0.0,0.0,0.0,0.32604386040091077,0.14176218411932878,9.793548840142096,0.0,0.0,0.0,0.0,0.0,0.0,0.0,0.0,0.0
1702623864573123756,323,1702623864572746276,base_link,-0.008584329643224293,-0.014284923187467283,-0.9788997093642747,0.20366052455162534,0.0,0.0,0.0,0.0,0.0,0.0,0.0,0.0,0.0,-0.011725539341568947,-0.015977220609784126,0.0022932440042495728,0.0,0.0,0.0,0.0,0.0,0.0,0.0,0.0,0.0,0.32604386040091077,0.14176218411932878,9.793548840142096,0.0,0.0,0.0,0.0,0.0,0.0,0.0,0.0,0.0
1702623864576405540,324,1702623864576099872,base_link,-0.008584329643224293,-0.014284923187467283,-0.9788997093642747,0.20366052455162534,0.0,0.0,0.0,0.0,0.0,0.0,0.0,0.0,0.0,-0.009595206007361412,-0.010650662705302238,0.0022932738065719604,0.0,0.0,0.0,0.0,0.0,0.0,0.0,0.0,0.0,0.2792314559708263,0.14522718654938002,9.794944556161786,0.0,0.0,0.0,0.0,0.0,0.0,0.0,0.0,0.0
1702623864579581629,325,1702623864579300165,base_link,-0.008611094074948502,-0.014261471062202474,-0.978897572992399,0.20367130650036439,0.0,0.0,0.0,0.0,0.0,0.0,0.0,0.0,0.0,-0.009595206007361412,-0.010650662705302238,0.0022932738065719604,0.0,0.0,0.0,0.0,0.0,0.0,0.0,0.0,0.0,0.2792314559708263,0.14522718654938002,9.794944556161786,0.0,0.0,0.0,0.0,0.0,0.0,0.0,0.0,0.0
1702623864583216348,326,1702623864582758903,base_link,-0.008611094074948502,-0.014261471062202474,-0.978897572992399,0.20367130650036439,0.0,0.0,0.0,0.0,0.0,0.0,0.0,0.0,0.0,0.002122667618095875,0.0021324045956134796,0.0022932589054107666,0.0,0.0,0.0,0.0,0.0,0.0,0.0,0.0,0.0,0.3585328153544642,0.1436002299976481,9.792386491262416,0.0,0.0,0.0,0.0,0.0,0.0,0.0,0.0,0.0
1702623864586424599,327,1702623864586043119,base_link,-0.008590627247487909,-0.014258767198635211,-0.9788968815910223,0.20367568311617784,0.0,0.0,0.0,0.0,0.0,0.0,0.0,0.0,0.0,0.002122667618095875,0.0021324045956134796,0.0022932589054107666,0.0,0.0,0.0,0.0,0.0,0.0,0.0,0.0,0.0,0.3585328153544642,0.1436002299976481,9.792386491262416,0.0,0.0,0.0,0.0,0.0,0.0,0.0,0.0,0.0
1702623864589989172,328,1702623864589555501,base_link,-0.008590627247487909,-0.014258767198635211,-0.9788968815910223,0.20367568311617784,0.0,0.0,0.0,0.0,0.0,0.0,0.0,0.0,0.0,-0.004268946126103401,0.01384991966187954,0.0012279897928237915,0.0,0.0,0.0,0.0,0.0,0.0,0.0,0.0,0.0,0.31105333229474785,0.23798462296349768,9.792170808544002,0.0,0.0,0.0,0.0,0.0,0.0,0.0,0.0,0.0
1702623864593069672,329,1702623864592696666,base_link,-0.008561704490876471,-0.014228422082158312,-0.9788970102399668,0.2036784047573956,0.0,0.0,0.0,0.0,0.0,0.0,0.0,0.0,0.0,-0.004268946126103401,0.01384991966187954,0.0012279897928237915,0.0,0.0,0.0,0.0,0.0,0.0,0.0,0.0,0.0,0.31105333229474785,0.23798462296349768,9.792170808544002,0.0,0.0,0.0,0.0,0.0,0.0,0.0,0.0,0.0
1702623864596389994,330,1702623864596096038,base_link,-0.008561704490876471,-0.014228422082158312,-0.9788970102399668,0.2036784047573956,0.0,0.0,0.0,0.0,0.0,0.0,0.0,0.0,0.0,-0.012791214510798454,0.012784313410520554,0.00016278959810733795,0.0,0.0,0.0,0.0,0.0,0.0,0.0,0.0,0.0,0.19013859854204382,0.16153231266211712,9.796823700838475,0.0,0.0,0.0,0.0,0.0,0.0,0.0,0.0,0.0
1702623864599855649,331,1702623864599451541,base_link,-0.00853947208515689,-0.014171968116496762,-0.9788971495957804,0.20368260418962705,0.0,0.0,0.0,0.0,0.0,0.0,0.0,0.0,0.0,-0.012791214510798454,0.012784313410520554,0.00016278959810733795,0.0,0.0,0.0,0.0,0.0,0.0,0.0,0.0,0.0,0.19013859854204382,0.16153231266211712,9.796823700838475,0.0,0.0,0.0,0.0,0.0,0.0,0.0,0.0,0.0
1702623864603210219,332,1702623864602809906,base_link,-0.00853947208515689,-0.014171968116496762,-0.9788971495957804,0.20368260418962705,0.0,0.0,0.0,0.0,0.0,0.0,0.0,0.0,0.0,-0.011726181954145432,-0.004259968176484108,-0.0009023994207382202,0.0,0.0,0.0,0.0,0.0,0.0,0.0,0.0,0.0,0.2610876171333753,0.3035152298217184,9.791818613589914,0.0,0.0,0.0,0.0,0.0,0.0,0.0,0.0,0.0
1702623864606338659,333,1702623864606003522,base_link,-0.008553698916585953,-0.014128936986449863,-0.9788961983332988,0.20368956837082336,0.0,0.0,0.0,0.0,0.0,0.0,0.0,0.0,0.0,-0.011726181954145432,-0.004259968176484108,-0.0009023994207382202,0.0,0.0,0.0,0.0,0.0,0.0,0.0,0.0,0.0,0.2610876171333753,0.3035152298217184,9.791818613589914,0.0,0.0,0.0,0.0,0.0,0.0,0.0,0.0,0.0
1702623864609693147,334,1702623864609406709,base_link,-0.008553698916585953,-0.014128936986449863,-0.9788961983332988,0.20368956837082336,0.0,0.0,0.0,0.0,0.0,0.0,0.0,0.0,0.0,-0.022379068657755852,0.0010661948472261429,0.0022935234010219574,0.0,0.0,0.0,0.0,0.0,0.0,0.0,0.0,0.0,0.3104040050988578,0.2076095834934097,9.792882497735807,0.0,0.0,0.0,0.0,0.0,0.0,0.0,0.0,0.0
1702623864612891759,335,1702623864612627983,base_link,-0.008574382725052105,-0.014056792861994991,-0.9788962562098883,0.20369341205248628,0.0,0.0,0.0,0.0,0.0,0.0,0.0,0.0,0.0,-0.022379068657755852,0.0010661948472261429,0.0022935234010219574,0.0,0.0,0.0,0.0,0.0,0.0,0.0,0.0,0.0,0.3104040050988578,0.2076095834934097,9.792882497735807,0.0,0.0,0.0,0.0,0.0,0.0,0.0,0.0,0.0
1702623864616458036,336,1702623864616123199,base_link,-0.008574382725052105,-0.014056792861994991,-0.9788962562098883,0.20369341205248628,0.0,0.0,0.0,0.0,0.0,0.0,0.0,0.0,0.0,-0.017053009942173958,0.0010661222040653229,0.0033588968217372894,0.0,0.0,0.0,0.0,0.0,0.0,0.0,0.0,0.0,0.30255973492136334,0.2328540924630681,9.79256026677536,0.0,0.0,0.0,0.0,0.0,0.0,0.0,0.0,0.0
1702623864619733689,337,1702623864619399785,base_link,-0.00858711447870049,-0.014009427683018461,-0.9788945999331617,0.2037040981978983,0.0,0.0,0.0,0.0,0.0,0.0,0.0,0.0,0.0,-0.017053009942173958,0.0010661222040653229,0.0033588968217372894,0.0,0.0,0.0,0.0,0.0,0.0,0.0,0.0,0.0,0.30255973492136334,0.2328540924630681,9.79256026677536,0.0,0.0,0.0,0.0,0.0,0.0,0.0,0.0,0.0
1702623864623309408,338,1702623864622894763,base_link,-0.00858711447870049,-0.014009427683018461,-0.9788945999331617,0.2037040981978983,0.0,0.0,0.0,0.0,0.0,0.0,0.0,0.0,0.0,-0.008531054481863976,-0.001064462587237358,0.0001631472259759903,0.0,0.0,0.0,0.0,0.0,0.0,0.0,0.0,0.0,0.31400155201605595,0.09869864547062221,9.794470971048604,0.0,0.0,0.0,0.0,0.0,0.0,0.0,0.0,0.0
1702623864626366344,339,1702623864626015663,base_link,-0.008604677661675424,-0.013982281054419553,-0.9788947564402127,0.20370447013433582,0.0,0.0,0.0,0.0,0.0,0.0,0.0,0.0,0.0,-0.008531054481863976,-0.001064462587237358,0.0001631472259759903,0.0,0.0,0.0,0.0,0.0,0.0,0.0,0.0,0.0,0.31400155201605595,0.09869864547062221,9.794470971048604,0.0,0.0,0.0,0.0,0.0,0.0,0.0,0.0,0.0
1702623864629707715,340,1702623864629419326,base_link,-0.008604677661675424,-0.013982281054419553,-0.9788947564402127,0.20370447013433582,0.0,0.0,0.0,0.0,0.0,0.0,0.0,0.0,0.0,-0.007465951144695282,-0.006390703842043877,0.0012284256517887115,0.0,0.0,0.0,0.0,0.0,0.0,0.0,0.0,0.0,0.2987048363309371,0.19352903873312707,9.793534700603228,0.0,0.0,0.0,0.0,0.0,0.0,0.0,0.0,0.0
1702623864633167475,341,1702623864632779359,base_link,-0.008631658067543818,-0.013957904825603306,-0.9788940638199776,0.20370832871999656,0.0,0.0,0.0,0.0,0.0,0.0,0.0,0.0,0.0,-0.007465951144695282,-0.006390703842043877,0.0012284256517887115,0.0,0.0,0.0,0.0,0.0,0.0,0.0,0.0,0.0,0.2987048363309371,0.19352903873312707,9.793534700603228,0.0,0.0,0.0,0.0,0.0,0.0,0.0,0.0,0.0
1702623864636593935,342,1702623864636229276,base_link,-0.008631658067543818,-0.013957904825603306,-0.9788940638199776,0.20370832871999656,0.0,0.0,0.0,0.0,0.0,0.0,0.0,0.0,0.0,-0.008531386032700539,-0.005325372330844402,0.00016318447887897491,0.0,0.0,0.0,0.0,0.0,0.0,0.0,0.0,0.0,0.336274515667597,0.0558515439574506,9.794069637038024,0.0,0.0,0.0,0.0,0.0,0.0,0.0,0.0,0.0
1702623864639881918,343,1702623864639441490,base_link,-0.008653566113385414,-0.013937823806045422,-0.9788944373994587,0.20370697899058393,0.0,0.0,0.0,0.0,0.0,0.0,0.0,0.0,0.0,-0.008531386032700539,-0.005325372330844402,0.00016318447887897491,0.0,0.0,0.0,0.0,0.0,0.0,0.0,0.0,0.0,0.336274515667597,0.0558515439574506,9.794069637038024,0.0,0.0,0.0,0.0,0.0,0.0,0.0,0.0,0.0
1702623864643106624,344,1702623864642777681,base_link,-0.008653566113385414,-0.013937823806045422,-0.9788944373994587,0.20370697899058393,0.0,0.0,0.0,0.0,0.0,0.0,0.0,0.0,0.0,-0.0021399222314357758,-0.004260027781128883,-0.0009021051228046417,0.0,0.0,0.0,0.0,0.0,0.0,0.0,0.0,0.0,0.3411263343385613,0.053516711983999855,9.793914885558234,0.0,0.0,0.0,0.0,0.0,0.0,0.0,0.0,0.0
1702623864646297418,345,1702623864645992994,base_link,-0.008676024068797718,-0.013927561234732449,-0.9788943181817924,0.20370729853349478,0.0,0.0,0.0,0.0,0.0,0.0,0.0,0.0,0.0,-0.0021399222314357758,-0.004260027781128883,-0.0009021051228046417,0.0,0.0,0.0,0.0,0.0,0.0,0.0,0.0,0.0,0.3411263343385613,0.053516711983999855,9.793914885558234,0.0,0.0,0.0,0.0,0.0,0.0,0.0,0.0,0.0
1702623864649714169,346,1702623864649438619,base_link,-0.008676024068797718,-0.013927561234732449,-0.9788943181817924,0.20370729853349478,0.0,0.0,0.0,0.0,0.0,0.0,0.0,0.0,0.0,0.004251575097441673,-0.0031946785748004913,-0.0019674114882946014,0.0,0.0,0.0,0.0,0.0,0.0,0.0,0.0,0.0,0.39928464131923425,0.04401302946709473,9.791763611752673,0.0,0.0,0.0,0.0,0.0,0.0,0.0,0.0,0.0
